[{"name":"AFIL","lat":40.6402777778,"lng":-73.7783333333},{"name":"AGGA","lat":-8.6983333333,"lng":160.6783333333},{"name":"AGGE","lat":-7.0833333333,"lng":155.75},{"name":"AGGH","lat":-9.4316666667,"lng":160.0533333333},{"name":"AGGJ","lat":-9.5333333333,"lng":160.0833333333},{"name":"AGGK","lat":-10.45,"lng":161.8966666667},{"name":"AGGL","lat":-10.7233333333,"lng":165.78},{"name":"AGGM","lat":-8.325,"lng":157.2633333333},{"name":"AGGN","lat":-8.1016666667,"lng":156.835},{"name":"AGGT","lat":-10.8833333333,"lng":162.4666666667},{"name":"AGGU","lat":-8.0833333333,"lng":160},{"name":"AGGV","lat":-7.6,"lng":158.7},{"name":"ANAU","lat":-0.5483333333,"lng":166.9166666667},{"name":"AYGA","lat":-6.0833333333,"lng":145.3916666667},{"name":"AYGR","lat":-8.75,"lng":148.25},{"name":"AYKK","lat":-7.425,"lng":144.2516666667},{"name":"AYKT","lat":-6.305,"lng":155.7283333333},{"name":"AYLA","lat":-6.7366666667,"lng":147},{"name":"AYMD","lat":-5.21,"lng":145.7883333333},{"name":"AYMH","lat":-5.8266666667,"lng":144.2966666667},{"name":"AYMO","lat":-2.0633333333,"lng":147.4233333333},{"name":"AYMS","lat":-10.6333333333,"lng":152.75},{"name":"AYNZ","lat":-6.57,"lng":146.7266666667},{"name":"AYPY","lat":-9.4433333333,"lng":147.22},{"name":"AYRB","lat":-4.2233333333,"lng":152.185},{"name":"AYTA","lat":-5.8666666667,"lng":142.9666666667},{"name":"AYWK","lat":-3.585,"lng":143.6683333333},{"name":"BGAA","lat":68.7219444444,"lng":-52.7847222222},{"name":"BGAG","lat":72.8869444444,"lng":-55.5961111111},{"name":"BGAK","lat":68.7,"lng":-52.75},{"name":"BGAM","lat":65.6055555556,"lng":-37.635},{"name":"BGAP","lat":60.4644444444,"lng":-45.5777777778},{"name":"BGAQ","lat":60.1475,"lng":-44.2866666667},{"name":"BGAR","lat":61.1833333333,"lng":-48.4166666667},{"name":"BGAS","lat":60.6066666667,"lng":-45.3833333333},{"name":"BGAT","lat":67.9416666667,"lng":-53.6266666667},{"name":"BGBW","lat":61.1608333333,"lng":-45.4255555556},{"name":"BGCH","lat":68.8183333333,"lng":-51.18},{"name":"BGCO","lat":70.7430555556,"lng":-22.6505555556},{"name":"BGDB","lat":74.3,"lng":-20.2166666667},{"name":"BGDH","lat":76.7666666667,"lng":-18.7666666667},{"name":"BGET","lat":60.6172222222,"lng":-45.9013888889},{"name":"BGFD","lat":60.0036111111,"lng":-44.6536111111},{"name":"BGFH","lat":61.9936166667,"lng":-49.6666666667},{"name":"BGGD","lat":61.4166666667,"lng":-48},{"name":"BGGH","lat":64.1922222222,"lng":-51.6825},{"name":"BGGN","lat":69.2522222222,"lng":-53.5433333333},{"name":"BGIA","lat":70.4955555556,"lng":-51.3030555556},{"name":"BGIG","lat":68.1466666667,"lng":-53.2},{"name":"BGIK","lat":68.15,"lng":-53.45},{"name":"BGIL","lat":69.0688888889,"lng":-51.1166666667},{"name":"BGIN","lat":73.1933333333,"lng":-56.0472222222},{"name":"BGIS","lat":65.5413888889,"lng":-38.9733333333},{"name":"BGIT","lat":68.6333333333,"lng":-51.8666666667},{"name":"BGJH","lat":60.7175,"lng":-46.0333333333},{"name":"BGJN","lat":69.2444444444,"lng":-51.0622222222},{"name":"BGKA","lat":68.3066666667,"lng":-53.4716666667},{"name":"BGKK","lat":65.5736111111,"lng":-37.1236111111},{"name":"BGKL","lat":72.1566666667,"lng":-55.5333333333},{"name":"BGKM","lat":65.8583333333,"lng":-37.0083333333},{"name":"BGKQ","lat":74.5794444444,"lng":-57.2352777778},{"name":"BGKS","lat":72.3811111111,"lng":-55.5366666667},{"name":"BGKT","lat":68.8611111111,"lng":-53.1305555556},{"name":"BGLL","lat":71.2416666667,"lng":-53.5666666667},{"name":"BGMQ","lat":65.4125,"lng":-52.9394444444},{"name":"BGMV","lat":72.2347222222,"lng":-23.9208333333},{"name":"BGNK","lat":68.2483333333,"lng":-52.88},{"name":"BGNL","lat":60.3666666667,"lng":-44.8333333333},{"name":"BGNN","lat":60.1416666667,"lng":-45.2355555556},{"name":"BGNO","lat":81.6083333333,"lng":-16.6783333333},{"name":"BGNQ","lat":71.5583333333,"lng":-53.2166666667},{"name":"BGNS","lat":60.9183333333,"lng":-46.0625},{"name":"BGNT","lat":70.7916666667,"lng":-53.6666666667},{"name":"BGNU","lat":74.11,"lng":-57.065},{"name":"BGPC","lat":60.0572222222,"lng":-43.1597222222},{"name":"BGPT","lat":62.0147222222,"lng":-49.6708333333},{"name":"BGQE","lat":70,"lng":-51.2766666667},{"name":"BGQQ","lat":77.4886111111,"lng":-69.3886111111},{"name":"BGQT","lat":60.7791666667,"lng":-47.1525},{"name":"BGSC","lat":70.4883333333,"lng":-21.9716666667},{"name":"BGSF","lat":67.0172222222,"lng":-50.6894444444},{"name":"BGSG","lat":65.9033333333,"lng":-37.3883333333},{"name":"BGSI","lat":77.7833333333,"lng":-70.7666666667},{"name":"BGSQ","lat":70.0166666667,"lng":-51.9333333333},{"name":"BGSS","lat":66.9513888889,"lng":-53.7294444444},{"name":"BGST","lat":70.8116666667,"lng":-51.6333333333},{"name":"BGSV","lat":76.0208333333,"lng":-65.0833333333},{"name":"BGTA","lat":73.3730555556,"lng":-56.0602777778},{"name":"BGTL","lat":76.5311111111,"lng":-68.7030555556},{"name":"BGTN","lat":65.8833333333,"lng":-37.7672222222},{"name":"BGTQ","lat":60.1966666667,"lng":-44.8166666667},{"name":"BGUK","lat":72.7880555556,"lng":-56.1277777778},{"name":"BGUM","lat":70.6808333333,"lng":-52.1230555556},{"name":"BGUQ","lat":70.7341666667,"lng":-52.6961111111},{"name":"BGUT","lat":70.0552777778,"lng":-51.8833333333},{"name":"BIAE","lat":65.9047166667,"lng":-22.3633333333},{"name":"BIAR","lat":65.6586111111,"lng":-18.0722222222},{"name":"BIBA","lat":63.5561111111,"lng":-20.1375},{"name":"BIBD","lat":65.6413888889,"lng":-23.5461111111},{"name":"BIBF","lat":65.5163888889,"lng":-13.805},{"name":"BIBL","lat":65.645,"lng":-20.2875},{"name":"BIBR","lat":65.0752777778,"lng":-21.8002777778},{"name":"BIBV","lat":64.79,"lng":-14.0227777778},{"name":"BIDA","lat":64.745,"lng":-23.7272166667},{"name":"BIDV","lat":64.6441666667,"lng":-14.2827777778},{"name":"BIEG","lat":65.2833333333,"lng":-14.4013888889},{"name":"BIEH","lat":64.25,"lng":-20.3},{"name":"BIFL","lat":64.1427777778,"lng":-20.3261111111},{"name":"BIFM","lat":63.8747222222,"lng":-16.6411111111},{"name":"BIGH","lat":63.8533333333,"lng":-20.2627833333},{"name":"BIGJ","lat":65.9952777778,"lng":-21.3269444444},{"name":"BIGR","lat":66.5547222222,"lng":-18.0175},{"name":"BIGS","lat":65.6325,"lng":-16.1483333333},{"name":"BIHE","lat":65.1886111111,"lng":-16.1947222222},{"name":"BIHI","lat":64.8861111111,"lng":-19.4925},{"name":"BIHK","lat":65.7047222222,"lng":-21.6963888889},{"name":"BIHL","lat":63.8358333333,"lng":-20.3775},{"name":"BIHN","lat":64.2955555556,"lng":-15.2272222222},{"name":"BIHU","lat":65.9525,"lng":-17.4258333333},{"name":"BIHV","lat":64.2663833333,"lng":-20.84695},{"name":"BIHZ","lat":64.6997222222,"lng":-20.8836111111},{"name":"BIIS","lat":66.0580555556,"lng":-23.1352777778},{"name":"BIKA","lat":64.7788888889,"lng":-22.2569444444},{"name":"BIKE","lat":64.705,"lng":-19.4105555556},{"name":"BIKF","lat":63.985,"lng":-22.6055555556},{"name":"BIKL","lat":63.7908333333,"lng":-18.0013888889},{"name":"BIKP","lat":66.3108333333,"lng":-16.4666666667},{"name":"BIKR","lat":65.7316666667,"lng":-19.5727777778},{"name":"BIMK","lat":63.7141666667,"lng":-19.8791666667},{"name":"BIMM","lat":65.4833333333,"lng":-18.1666666667},{"name":"BIMS","lat":64.1811111111,"lng":-21.7077777778},{"name":"BIND","lat":64.7205555556,"lng":-18.0666666667},{"name":"BINF","lat":65.1319444444,"lng":-13.7463888889},{"name":"BIOF","lat":66.0833333333,"lng":-18.6666666667},{"name":"BIPA","lat":65.5558333333,"lng":-23.965},{"name":"BIRE","lat":65.4497222222,"lng":-22.23},{"name":"BIRF","lat":64.9113888889,"lng":-23.8230555556},{"name":"BIRG","lat":66.4063888889,"lng":-15.9183333333},{"name":"BIRK","lat":64.13,"lng":-21.9405555556},{"name":"BIRL","lat":65.6558333333,"lng":-16.9180555556},{"name":"BIRS","lat":65.9141666667,"lng":-22.4213888889},{"name":"BISA","lat":64.8333333333,"lng":-16.0333333333},{"name":"BISE","lat":63.9291666667,"lng":-21.0380555556},{"name":"BISF","lat":63.9291666667,"lng":-21.0377777778},{"name":"BISI","lat":66.1333333333,"lng":-18.9166666667},{"name":"BISK","lat":63.5172222222,"lng":-19.4891666667},{"name":"BISL","lat":64.0038888889,"lng":-16.9480555556},{"name":"BISN","lat":64.3833333333,"lng":-15.3833333333},{"name":"BISP","lat":64.6541666667,"lng":-18.4969444444},{"name":"BISR","lat":64.6344444444,"lng":-21.4875},{"name":"BISS","lat":64.0608333333,"lng":-21.5747222222},{"name":"BIST","lat":65.0580555556,"lng":-22.7941666667},{"name":"BISV","lat":64.1158333333,"lng":-18.7833333333},{"name":"BITE","lat":65.8702777778,"lng":-23.5597222222},{"name":"BITM","lat":63.69,"lng":-19.5630555556},{"name":"BITN","lat":66.2183333333,"lng":-15.3347222222},{"name":"BIVA","lat":64.03305,"lng":-20.6511166667},{"name":"BIVH","lat":65.5569444444,"lng":-19.4280555556},{"name":"BIVI","lat":63.4216666667,"lng":-18.8883333333},{"name":"BIVM","lat":63.425,"lng":-20.2791666667},{"name":"BIVO","lat":65.7205555556,"lng":-14.8505555556},{"name":"BKPR","lat":42.5741666667,"lng":21.0358333333},{"name":"CXET","lat":44.2333333333,"lng":-79.7833333333},{"name":"CYAC","lat":51.7269444444,"lng":-91.8227777778},{"name":"CYAG","lat":48.6541666667,"lng":-93.4397222222},{"name":"CYAL","lat":50.5666666667,"lng":-126.9666666667},{"name":"CYAM","lat":46.5044444444,"lng":-84.3233333333},{"name":"CYAQ","lat":53.52,"lng":-88.6466666667},{"name":"CYAS","lat":60.0272222222,"lng":-69.9991666667},{"name":"CYAT","lat":52.9277777778,"lng":-82.4305555556},{"name":"CYAW","lat":44.8725,"lng":-63.5086111111},{"name":"CYAX","lat":53.8458333333,"lng":-89.5722222222},{"name":"CYAY","lat":51.3916666667,"lng":-56.0844444444},{"name":"CYAZ","lat":49.0833333333,"lng":-125.7666666667},{"name":"CYBB","lat":68.5344444444,"lng":-89.8080555556},{"name":"CYBC","lat":49.1322222222,"lng":-68.2072222222},{"name":"CYBD","lat":52.3833333333,"lng":-126.7666666667},{"name":"CYBE","lat":59.5616666667,"lng":-108.4786111111},{"name":"CYBG","lat":48.3305555556,"lng":-70.9963888889},{"name":"CYBK","lat":64.2988888889,"lng":-96.0777777778},{"name":"CYBL","lat":49.95,"lng":-125.2666666667},{"name":"CYBQ","lat":58.7086111111,"lng":-98.5127777778},{"name":"CYBR","lat":49.9097222222,"lng":-99.9508333333},{"name":"CYBT","lat":57.8908333333,"lng":-101.6783333333},{"name":"CYBV","lat":52.3588888889,"lng":-97.0183333333},{"name":"CYBX","lat":51.4383333333,"lng":-57.1852777778},{"name":"CYCA","lat":53.6838888889,"lng":-57.04},{"name":"CYCB","lat":69.1080555556,"lng":-105.1383333333},{"name":"CYCD","lat":49.05,"lng":-123.8666666667},{"name":"CYCG","lat":49.3,"lng":-117.5},{"name":"CYCH","lat":47.0061111111,"lng":-65.4569444444},{"name":"CYCL","lat":47.9905555556,"lng":-66.3313888889},{"name":"CYCN","lat":49.1055555556,"lng":-81.0136111111},{"name":"CYCO","lat":67.8141666667,"lng":-115.135},{"name":"CYCR","lat":54.61,"lng":-97.7605555556},{"name":"CYCS","lat":63.3469444444,"lng":-90.7311111111},{"name":"CYCX","lat":45.8377777778,"lng":-66.4366666667},{"name":"CYCY","lat":70.4861111111,"lng":-68.5166666667},{"name":"CYCZ","lat":45.3333333333,"lng":-73},{"name":"CYDA","lat":64.0430555556,"lng":-139.1277777778},{"name":"CYDF","lat":49.2108333333,"lng":-57.3913888889},{"name":"CYDL","lat":58.4222222222,"lng":-130.0322222222},{"name":"CYDN","lat":51.1,"lng":-100.05},{"name":"CYDP","lat":56.5491666667,"lng":-61.6802777778},{"name":"CYDQ","lat":55.7416666667,"lng":-120.1827777778},{"name":"CYED","lat":53.3333333333,"lng":-113},{"name":"CYEG","lat":53.3097222222,"lng":-113.5797222222},{"name":"CYEK","lat":61.1166666667,"lng":-94.0166666667},{"name":"CYEL","lat":46.3513888889,"lng":-82.5613888889},{"name":"CYEM","lat":45.8427777778,"lng":-81.8580555556},{"name":"CYER","lat":56.0211111111,"lng":-87.6777777778},{"name":"CYEV","lat":68.3052777778,"lng":-133.4872222222},{"name":"CYFA","lat":52.2013888889,"lng":-81.6969444444},{"name":"CYFB","lat":63.75,"lng":-68.55},{"name":"CYFC","lat":45.8694444444,"lng":-66.5316666667},{"name":"CYFE","lat":48.7461111111,"lng":-69.0972222222},{"name":"CYFH","lat":52.3666666667,"lng":-55.6833333333},{"name":"CYFJ","lat":46.4133333333,"lng":-74.78},{"name":"CYFO","lat":54.6833333333,"lng":-101.6833333333},{"name":"CYFR","lat":61.1808333333,"lng":-113.6891666667},{"name":"CYFS","lat":61.7602777778,"lng":-121.2366666667},{"name":"CYFT","lat":55.0769444444,"lng":-59.1863888889},{"name":"CYGB","lat":49.6883333333,"lng":-124.5177777778},{"name":"CYGH","lat":66.2616666667,"lng":-128.6169444444},{"name":"CYGK","lat":44.2252777778,"lng":-76.5988888889},{"name":"CYGL","lat":53.6333333333,"lng":-77.7},{"name":"CYGO","lat":54.5566666667,"lng":-94.49},{"name":"CYGP","lat":48.7752777778,"lng":-64.4786111111},{"name":"CYGQ","lat":49.7783333333,"lng":-86.9394444444},{"name":"CYGR","lat":47.4247222222,"lng":-61.7780555556},{"name":"CYGT","lat":69.3647222222,"lng":-81.8161111111},{"name":"CYGV","lat":50.2811111111,"lng":-63.6105555556},{"name":"CYGW","lat":55.2813888889,"lng":-77.7580555556},{"name":"CYGX","lat":56.3575,"lng":-94.7105555556},{"name":"CYGZ","lat":76.4261111111,"lng":-82.9091666667},{"name":"CYHA","lat":61.0466666667,"lng":-69.6169444444},{"name":"CYHD","lat":59.9983333333,"lng":-92.7441666667},{"name":"CYHF","lat":49.7141666667,"lng":-83.6861111111},{"name":"CYHH","lat":51.6908333333,"lng":-76.135},{"name":"CYHI","lat":70.7616666667,"lng":-117.8055555556},{"name":"CYHK","lat":68.6355555556,"lng":-95.8497222222},{"name":"CYHM","lat":43.1719444444,"lng":-79.9313888889},{"name":"CYHN","lat":49.1930555556,"lng":-84.7588888889},{"name":"CYHO","lat":55.4483333333,"lng":-60.2286111111},{"name":"CYHR","lat":50.4961111111,"lng":-59.4805555556},{"name":"CYHU","lat":45.5175,"lng":-73.4169444444},{"name":"CYHY","lat":60.8388888889,"lng":-115.7766666667},{"name":"CYHZ","lat":44.8808333333,"lng":-63.5086111111},{"name":"CYIB","lat":48.75,"lng":-91.6333333333},{"name":"CYIK","lat":62.4172222222,"lng":-77.9252777778},{"name":"CYIO","lat":72.6833333333,"lng":-77.9666666667},{"name":"CYIV","lat":53.8566666667,"lng":-94.6525},{"name":"CYJP","lat":61.3194444444,"lng":-117.6058333333},{"name":"CYJQ","lat":52.1397222222,"lng":-128.0636111111},{"name":"CYJT","lat":48.5441666667,"lng":-58.55},{"name":"CYKA","lat":50.7,"lng":-120.45},{"name":"CYKF","lat":43.4588888889,"lng":-80.3844444444},{"name":"CYKG","lat":61.5886111111,"lng":-71.9294444444},{"name":"CYKL","lat":54.8055555556,"lng":-66.8058333333},{"name":"CYKO","lat":60.8186111111,"lng":-78.1486111111},{"name":"CYKQ","lat":51.4736111111,"lng":-78.7580555556},{"name":"CYKX","lat":48.2102777778,"lng":-79.9838888889},{"name":"CYKY","lat":51.5166666667,"lng":-109.1666666667},{"name":"CYKZ","lat":43.8622222222,"lng":-79.37},{"name":"CYLA","lat":59.2969444444,"lng":-69.5997222222},{"name":"CYLC","lat":62.85,"lng":-69.8833333333},{"name":"CYLD","lat":47.82,"lng":-83.3466666667},{"name":"CYLH","lat":52.1958333333,"lng":-87.93},{"name":"CYLL","lat":53.3166666667,"lng":-110.0666666667},{"name":"CYLQ","lat":46,"lng":-72},{"name":"CYLR","lat":56.5136111111,"lng":-99.9852777778},{"name":"CYLU","lat":58.7113888889,"lng":-65.9936111111},{"name":"CYLW","lat":49.9666666667,"lng":-119.3833333333},{"name":"CYMA","lat":63.6166666667,"lng":-135.8666666667},{"name":"CYMG","lat":49.0838888889,"lng":-85.8605555556},{"name":"CYMH","lat":52.3027777778,"lng":-55.8472222222},{"name":"CYML","lat":55,"lng":-66},{"name":"CYMM","lat":56.6527777778,"lng":-111.2216666667},{"name":"CYMO","lat":51.2911111111,"lng":-80.6077777778},{"name":"CYMT","lat":49.7716666667,"lng":-74.5275},{"name":"CYMU","lat":56.5361111111,"lng":-76.5183333333},{"name":"CYMX","lat":45.6833333333,"lng":-74.0333333333},{"name":"CYNA","lat":50.1897222222,"lng":-61.7891666667},{"name":"CYNC","lat":53.0108333333,"lng":-78.8302777778},{"name":"CYND","lat":45.5213888889,"lng":-75.5641666667},{"name":"CYNE","lat":53.9583333333,"lng":-97.8438888889},{"name":"CYNL","lat":58.2766666667,"lng":-104.0822222222},{"name":"CYNM","lat":49.7613888889,"lng":-77.8025},{"name":"CYOC","lat":67.5666666667,"lng":-139.85},{"name":"CYOD","lat":54.4,"lng":-110.1166666667},{"name":"CYOH","lat":54.9330555556,"lng":-95.2786111111},{"name":"CYOJ","lat":58.6213888889,"lng":-117.1647222222},{"name":"CYOO","lat":43.9227777778,"lng":-78.895},{"name":"CYOP","lat":58.4905555556,"lng":-119.4030555556},{"name":"CYOS","lat":44.5902777778,"lng":-80.8375},{"name":"CYOW","lat":45.3225,"lng":-75.6691666667},{"name":"CYPA","lat":53.8833333333,"lng":-122.6833333333},{"name":"CYPB","lat":49.2833333333,"lng":-124.945},{"name":"CYPC","lat":69.3611111111,"lng":-124.0752777778},{"name":"CYPD","lat":45.6566666667,"lng":-61.3680555556},{"name":"CYPE","lat":56.2269444444,"lng":-117.4472222222},{"name":"CYPH","lat":58.4716666667,"lng":-78.0772222222},{"name":"CYPL","lat":51.4463888889,"lng":-90.2152777778},{"name":"CYPM","lat":51.82,"lng":-93.9744444444},{"name":"CYPN","lat":49.8361111111,"lng":-64.2869444444},{"name":"CYPO","lat":54.9833333333,"lng":-85.4333333333},{"name":"CYPQ","lat":44.23,"lng":-78.3633333333},{"name":"CYPR","lat":54.2833333333,"lng":-130.45},{"name":"CYPW","lat":49.8341666667,"lng":-124.5},{"name":"CYPX","lat":60.0505555556,"lng":-77.2869444444},{"name":"CYPY","lat":58.7672222222,"lng":-111.1172222222},{"name":"CYQA","lat":44.9747222222,"lng":-79.3033333333},{"name":"CYQB","lat":46.7933333333,"lng":-71.3913888889},{"name":"CYQD","lat":53.9666666667,"lng":-101.1},{"name":"CYQF","lat":52.1666666667,"lng":-113.8930555556},{"name":"CYQG","lat":42.2747222222,"lng":-82.9583333333},{"name":"CYQH","lat":60.1177777778,"lng":-128.8219444444},{"name":"CYQI","lat":43.8269444444,"lng":-66.0880555556},{"name":"CYQK","lat":49.7883333333,"lng":-94.3630555556},{"name":"CYQL","lat":49.65,"lng":-112.8},{"name":"CYQM","lat":46.1547222222,"lng":-64.7738888889},{"name":"CYQQ","lat":49.7166666667,"lng":-124.8833333333},{"name":"CYQR","lat":50.4333333333,"lng":-104.6666666667},{"name":"CYQT","lat":48.3719444444,"lng":-89.3238888889},{"name":"CYQU","lat":55.1833333333,"lng":-118.8833333333},{"name":"CYQV","lat":51.2647222222,"lng":-102.45},{"name":"CYQW","lat":52.7666666667,"lng":-108.25},{"name":"CYQX","lat":48.94,"lng":-54.5686111111},{"name":"CYQY","lat":46.1613888889,"lng":-60.0477777778},{"name":"CYQZ","lat":52.0333333333,"lng":-122.5},{"name":"CYRB","lat":74.7169444444,"lng":-94.9694444444},{"name":"CYRJ","lat":48.52,"lng":-72.2655555556},{"name":"CYRL","lat":51.0666666667,"lng":-93.7933333333},{"name":"CYRM","lat":52.4166666667,"lng":-114.9},{"name":"CYRQ","lat":46.3533333333,"lng":-72.68},{"name":"CYRS","lat":54.1669444444,"lng":-93.5594444444},{"name":"CYRT","lat":62.8113888889,"lng":-92.1158333333},{"name":"CYSB","lat":46.625,"lng":-80.7988888889},{"name":"CYSC","lat":45.4380555556,"lng":-71.6905555556},{"name":"CYSE","lat":52.1208333333,"lng":-101.2361111111},{"name":"CYSF","lat":59.25,"lng":-105.8333333333},{"name":"CYSG","lat":46.0963888889,"lng":-70.7147222222},{"name":"CYSJ","lat":45.3161111111,"lng":-65.8902777778},{"name":"CYSK","lat":56.5377777778,"lng":-79.2466666667},{"name":"CYSL","lat":47.1575,"lng":-67.8347222222},{"name":"CYSM","lat":60.0222222222,"lng":-111.9602777778},{"name":"CYSP","lat":48.7552777778,"lng":-86.3444444444},{"name":"CYSR","lat":72.9822222222,"lng":-84.6136111111},{"name":"CYST","lat":53.8455555556,"lng":-94.8527777778},{"name":"CYSU","lat":46.4391666667,"lng":-63.8313888889},{"name":"CYSY","lat":71.9938888889,"lng":-125.2425},{"name":"CYTA","lat":45.8644444444,"lng":-77.2516666667},{"name":"CYTE","lat":64.23,"lng":-76.5266666667},{"name":"CYTF","lat":48.5088888889,"lng":-71.6419444444},{"name":"CYTH","lat":55.8011111111,"lng":-97.8641666667},{"name":"CYTL","lat":53.8172222222,"lng":-89.8958333333},{"name":"CYTQ","lat":58.6677777778,"lng":-69.9558333333},{"name":"CYTR","lat":45.6113888889,"lng":-62.6219444444},{"name":"CYTS","lat":48.5697222222,"lng":-81.3766666667},{"name":"CYTZ","lat":43.65,"lng":-79.3861111111},{"name":"CYUB","lat":69.4333333333,"lng":-133.0263888889},{"name":"CYUF","lat":68.5333333333,"lng":-89.8},{"name":"CYUJ","lat":68.4791666667,"lng":-113.2252833333},{"name":"CYUK","lat":64.75,"lng":-109.0666666667},{"name":"CYUL","lat":45.4680555556,"lng":-73.7413888889},{"name":"CYUT","lat":66.5213888889,"lng":-86.2247222222},{"name":"CYUX","lat":68.7833333333,"lng":-81.25},{"name":"CYUY","lat":48.2,"lng":-78.8333333333},{"name":"CYVB","lat":48.0716666667,"lng":-65.4608333333},{"name":"CYVC","lat":55.0666666667,"lng":-105.35},{"name":"CYVM","lat":67.5458333333,"lng":-64.0313888889},{"name":"CYVO","lat":48.0538888889,"lng":-77.7825},{"name":"CYVP","lat":58.0961111111,"lng":-68.4269444444},{"name":"CYVQ","lat":65.2825,"lng":-126.8002777778},{"name":"CYVR","lat":49.1938888889,"lng":-123.1844444444},{"name":"CYVT","lat":55.8388888889,"lng":-108.4258333333},{"name":"CYVZ","lat":49.2166666667,"lng":-57.3833333333},{"name":"CYWG","lat":49.9108333333,"lng":-97.2433333333},{"name":"CYWJ","lat":65.1925,"lng":-123.4288888889},{"name":"CYWK","lat":52.9219444444,"lng":-66.8644444444},{"name":"CYWL","lat":52.1830555556,"lng":-122.0541666667},{"name":"CYWP","lat":52.9597222222,"lng":-87.3688888889},{"name":"CYWY","lat":63.2166666667,"lng":-123.4333333333},{"name":"CYXC","lat":49.6166666667,"lng":-115.7833333333},{"name":"CYXD","lat":53.5666666667,"lng":-113.5166666667},{"name":"CYXE","lat":52.1666666667,"lng":-106.7},{"name":"CYXH","lat":50.0166666667,"lng":-110.7166666667},{"name":"CYXJ","lat":56.2333333333,"lng":-120.7333333333},{"name":"CYXK","lat":48.4780555556,"lng":-68.4969444444},{"name":"CYXL","lat":50.1152777778,"lng":-91.9055555556},{"name":"CYXN","lat":62.2391666667,"lng":-92.5972222222},{"name":"CYXP","lat":66.1466666667,"lng":-65.7130555556},{"name":"CYXR","lat":47.695,"lng":-79.8488888889},{"name":"CYXS","lat":53.8833333333,"lng":-122.7833333333},{"name":"CYXT","lat":54.4666666667,"lng":-128.5833333333},{"name":"CYXU","lat":43.0355555556,"lng":-81.1538888889},{"name":"CYXX","lat":49.0333333333,"lng":-122.3722222222},{"name":"CYXY","lat":60.71,"lng":-135.0683333333},{"name":"CYXZ","lat":47.9675,"lng":-84.7852777778},{"name":"CYYB","lat":56.3636111111,"lng":-79.4227777778},{"name":"CYYC","lat":51.1138888889,"lng":-114.0202777778},{"name":"CYYD","lat":54.8247222222,"lng":-127.1827777778},{"name":"CYYE","lat":58.8369444444,"lng":-122.5966666667},{"name":"CYYF","lat":49.4666666667,"lng":-119.6},{"name":"CYYG","lat":52.765,"lng":-56.1155555556},{"name":"CYYH","lat":69.5461111111,"lng":-93.5761111111},{"name":"CYYJ","lat":48.65,"lng":-123.4166666667},{"name":"CYYL","lat":56.8638888889,"lng":-101.0761111111},{"name":"CYYN","lat":50.2833333333,"lng":-107.6833333333},{"name":"CYYQ","lat":58.7372222222,"lng":-94.0572222222},{"name":"CYYR","lat":53.3191666667,"lng":-60.4258333333},{"name":"CYYT","lat":47.6186111111,"lng":-52.7519444444},{"name":"CYYU","lat":49.4138888889,"lng":-82.4675},{"name":"CYYY","lat":48.6086111111,"lng":-68.2080555556},{"name":"CYYZ","lat":43.6772222222,"lng":-79.6305555556},{"name":"CYZD","lat":43.7425,"lng":-79.4655555556},{"name":"CYZE","lat":45.8852777778,"lng":-82.5677777778},{"name":"CYZF","lat":62.4666666667,"lng":-114.4333333333},{"name":"CYZG","lat":62.1791666667,"lng":-75.6669444444},{"name":"CYZP","lat":53.25,"lng":-131.8},{"name":"CYZR","lat":42.9994444444,"lng":-82.3088888889},{"name":"CYZS","lat":64.1933333333,"lng":-83.3594444444},{"name":"CYZT","lat":50.6833333333,"lng":-127.3666666667},{"name":"CYZV","lat":50.2241666667,"lng":-66.2661111111},{"name":"CYZX","lat":44.9844444444,"lng":-64.9169444444},{"name":"CZAC","lat":56.0902777778,"lng":-96.0913888889},{"name":"CZAM","lat":50.6827777778,"lng":-119.2325},{"name":"CZBM","lat":45.2908333333,"lng":-72.7413888889},{"name":"CZEM","lat":52.2258333333,"lng":-78.5225},{"name":"CZFA","lat":62.2075,"lng":-133.3758333333},{"name":"CZFD","lat":59.34,"lng":-107.1866666667},{"name":"CZFG","lat":55.7483333333,"lng":-101.2658333333},{"name":"CZFM","lat":67.4077777778,"lng":-134.8602777778},{"name":"CZFN","lat":64.9086111111,"lng":-125.5683333333},{"name":"CZGI","lat":54.8397222222,"lng":-94.0808333333},{"name":"CZGR","lat":52.0455555556,"lng":-95.4658333333},{"name":"CZJG","lat":54.5194444444,"lng":-98.0463888889},{"name":"CZJN","lat":52.1,"lng":-101.2666666667},{"name":"CZKE","lat":52.2833333333,"lng":-81.6833333333},{"name":"CZMD","lat":53.4388888889,"lng":-91.7555555556},{"name":"CZML","lat":51.7366666667,"lng":-121.3336111111},{"name":"CZMT","lat":54.0166666667,"lng":-132.1183333333},{"name":"CZNG","lat":53,"lng":-97.2666666667},{"name":"CZPB","lat":53.8905555556,"lng":-92.1952777778},{"name":"CZRJ","lat":52.9436111111,"lng":-91.3127777778},{"name":"CZSJ","lat":53.0647222222,"lng":-93.3475},{"name":"CZSN","lat":56.7925,"lng":-98.9075},{"name":"CZTA","lat":51.7833333333,"lng":-96.7},{"name":"CZTM","lat":55.8647222222,"lng":-92.0813888889},{"name":"CZUM","lat":53.5619444444,"lng":-64.1063888889},{"name":"CZWH","lat":58.6175,"lng":-101.4688888889},{"name":"CZWL","lat":58.1069444444,"lng":-103.1722222222},{"name":"DAAB","lat":36.5036111111,"lng":2.8141666667},{"name":"DAAD","lat":35.3313888889,"lng":4.2044444444},{"name":"DAAE","lat":36.7119444444,"lng":5.0694444444},{"name":"DAAF","lat":27.0666666667,"lng":1.1166666667},{"name":"DAAG","lat":36.6938888889,"lng":3.2144444444},{"name":"DAAJ","lat":24.2930555556,"lng":9.4519444444},{"name":"DAAK","lat":36.5458333333,"lng":2.8761111111},{"name":"DAAM","lat":36.1,"lng":6.0333333333},{"name":"DAAN","lat":26.71,"lng":0.2855555556},{"name":"DAAP","lat":26.7236111111,"lng":8.6177777778},{"name":"DAAQ","lat":35.5252777778,"lng":2.8786111111},{"name":"DAAS","lat":36.1786111111,"lng":5.33},{"name":"DAAT","lat":22.8111111111,"lng":5.4508333333},{"name":"DAAV","lat":36.7944444444,"lng":5.8736111111},{"name":"DAAW","lat":28.1380555556,"lng":6.8366666667},{"name":"DAAY","lat":33.5358333333,"lng":-0.2422222222},{"name":"DAAZ","lat":35.7522222222,"lng":0.6263888889},{"name":"DABB","lat":36.8222222222,"lng":7.8094444444},{"name":"DABC","lat":36.2852777778,"lng":6.6191666667},{"name":"DABP","lat":36.8833333333,"lng":6.9},{"name":"DABS","lat":35.4325,"lng":8.1255555556},{"name":"DABT","lat":35.7591666667,"lng":6.3225},{"name":"DAFH","lat":32.9305555556,"lng":3.3116666667},{"name":"DAFI","lat":34.6666666667,"lng":3.35},{"name":"DAOB","lat":35.3413888889,"lng":1.4669444444},{"name":"DAOC","lat":31.65,"lng":-2.2502833333},{"name":"DAOE","lat":35.7352777778,"lng":-0.8052777778},{"name":"DAOF","lat":27.7,"lng":-8.1666666667},{"name":"DAOI","lat":36.2169444444,"lng":1.34},{"name":"DAOL","lat":35.5425,"lng":-0.5322222222},{"name":"DAON","lat":35.0152777778,"lng":-1.4508333333},{"name":"DAOO","lat":35.6272222222,"lng":-0.6113888889},{"name":"DAOR","lat":31.6505555556,"lng":-2.2530555556},{"name":"DAOS","lat":35.1716666667,"lng":-0.5933333333},{"name":"DAOV","lat":35.2169444444,"lng":0.1483333333},{"name":"DAOY","lat":33.7208333333,"lng":1.0913888889},{"name":"DATG","lat":19.5688888889,"lng":5.7488888889},{"name":"DATM","lat":21.375,"lng":0.9238888889},{"name":"DAUA","lat":27.8391666667,"lng":-0.1852777778},{"name":"DAUB","lat":34.8016666667,"lng":5.7416666667},{"name":"DAUE","lat":30.5688888889,"lng":2.8647222222},{"name":"DAUG","lat":32.3816666667,"lng":3.7994444444},{"name":"DAUH","lat":31.6738888889,"lng":6.1405555556},{"name":"DAUI","lat":27.2536111111,"lng":2.5108333333},{"name":"DAUK","lat":33.06,"lng":6.0872222222},{"name":"DAUL","lat":33.7644444444,"lng":2.9283333333},{"name":"DAUO","lat":33.5130555556,"lng":6.7825},{"name":"DAUT","lat":29.2411111111,"lng":0.2836111111},{"name":"DAUU","lat":31.9313888889,"lng":5.4066666667},{"name":"DAUZ","lat":28.0513888889,"lng":9.6427777778},{"name":"DBBB","lat":6.3563888889,"lng":2.3833333333},{"name":"DBBK","lat":11.1333333333,"lng":2.9333333333},{"name":"DBBN","lat":10.2833333333,"lng":1.4833333333},{"name":"DBBP","lat":9.3572222222,"lng":2.6091666667},{"name":"DBBS","lat":8.0666666667,"lng":2.6166666667},{"name":"DFCM","lat":11.6833333333,"lng":-1.0666666667},{"name":"DFEB","lat":11.25,"lng":0.75},{"name":"DFED","lat":12.15,"lng":-1.8},{"name":"DFEE","lat":14.0333333333,"lng":-0.6666666667},{"name":"DFEF","lat":12.0833333333,"lng":-0.4333333333},{"name":"DFEG","lat":14.45,"lng":-1.6666666667},{"name":"DFEP","lat":11.25,"lng":0.7502777778},{"name":"DFES","lat":13.5833333333,"lng":-0.5333333333},{"name":"DFFD","lat":12.3333333333,"lng":-1.6666666667},{"name":"DFOG","lat":10.3,"lng":-3.2},{"name":"DFOO","lat":11.1666666667,"lng":-4.3166666667},{"name":"DGAA","lat":5.6,"lng":-1},{"name":"DGLE","lat":5.9166666667,"lng":-2.9333333333},{"name":"DGSI","lat":6.7166666667,"lng":-1.5833333333},{"name":"DGSN","lat":7.3666666667,"lng":-2.3},{"name":"DGTK","lat":4.8916666667,"lng":-1.7666666667},{"name":"DIAP","lat":5.2544444444,"lng":-3.9286111111},{"name":"DIAU","lat":6.7166666667,"lng":-3.4666666667},{"name":"DIBI","lat":9.5333333333,"lng":-6.4666666667},{"name":"DIBK","lat":7.7525,"lng":-5.0677777778},{"name":"DIBN","lat":9.2666666667,"lng":-3.0333333333},{"name":"DIBU","lat":8.0113888889,"lng":-2.7647222222},{"name":"DIDL","lat":6.8,"lng":-6.4666666667},{"name":"DIGA","lat":6.0666666667,"lng":-5.9166666667},{"name":"DIGL","lat":6.525,"lng":-7.4786111111},{"name":"DIKO","lat":9.3875,"lng":-5.5541666667},{"name":"DIMN","lat":7.2719444444,"lng":-7.5869444444},{"name":"DIOD","lat":9.6,"lng":-7.5333333333},{"name":"DISG","lat":7.9666666667,"lng":-6.7333333333},{"name":"DISP","lat":4.7333333333,"lng":-6.6666666667},{"name":"DISS","lat":4.9333333333,"lng":-6.1333333333},{"name":"DITB","lat":4.4333333333,"lng":-7.3666666667},{"name":"DITM","lat":8.3666666667,"lng":-7.7},{"name":"DIYO","lat":6.9058333333,"lng":-5.3638888889},{"name":"DNAA","lat":9.005,"lng":7.265},{"name":"DNAI","lat":4.8763888889,"lng":8.0855555556},{"name":"DNAK","lat":7.2583333333,"lng":5.3033333333},{"name":"DNBE","lat":6.3166666667,"lng":5.6},{"name":"DNCA","lat":4.975,"lng":8.3483333333},{"name":"DNEN","lat":6.475,"lng":7.5616666667},{"name":"DNIL","lat":8.4416666667,"lng":4.4916666667},{"name":"DNJO","lat":9.64,"lng":8.87},{"name":"DNKA","lat":10.695,"lng":7.3233333333},{"name":"DNKN","lat":12.0466666667,"lng":8.525},{"name":"DNMA","lat":11.855,"lng":13.0833333333},{"name":"DNMK","lat":7.7038888889,"lng":8.6138888889},{"name":"DNMM","lat":6.575,"lng":3.3216666667},{"name":"DNMN","lat":9.6516666667,"lng":6.4616666667},{"name":"DNPO","lat":5.015,"lng":6.9466666667},{"name":"DNSO","lat":12.9266666667,"lng":5.2483333333},{"name":"DNYO","lat":9.26,"lng":12.4316666667},{"name":"DNZA","lat":11.1316666667,"lng":7.6883333333},{"name":"DRRM","lat":13.5016666667,"lng":7.1216666667},{"name":"DRRN","lat":13.4816666667,"lng":2.1702777778},{"name":"DRRT","lat":14.8733333333,"lng":5.2616666667},{"name":"DRZA","lat":16.9666666667,"lng":7.9833333333},{"name":"DRZF","lat":13.375,"lng":12.6416666667},{"name":"DRZL","lat":19.25,"lng":7.6},{"name":"DRZR","lat":13.7783333333,"lng":8.985},{"name":"DTKA","lat":36.98,"lng":8.8769444444},{"name":"DTMB","lat":35.7580555556,"lng":10.7547222222},{"name":"DTNH","lat":36.0758333333,"lng":10.4386111111},{"name":"DTNZ","lat":36.0758333333,"lng":10.4386166667},{"name":"DTTA","lat":36.8511111111,"lng":10.2269444444},{"name":"DTTB","lat":37.2452777778,"lng":9.7913888889},{"name":"DTTD","lat":32.3061111111,"lng":10.3819444444},{"name":"DTTF","lat":34.4155555556,"lng":8.8136111111},{"name":"DTTG","lat":33.7325,"lng":9.9161111111},{"name":"DTTI","lat":36.7211111111,"lng":9.9433333333},{"name":"DTTJ","lat":33.8755555556,"lng":10.7772222222},{"name":"DTTK","lat":35.7,"lng":10.0166666667},{"name":"DTTL","lat":36.8333333333,"lng":11.0833333333},{"name":"DTTN","lat":36.5,"lng":8.75},{"name":"DTTR","lat":31.7027777778,"lng":9.2575},{"name":"DTTX","lat":34.7205555556,"lng":10.6886111111},{"name":"DTTZ","lat":33.9397222222,"lng":8.1105555556},{"name":"DXNG","lat":9.7775,"lng":1.0955555556},{"name":"DXXX","lat":6.1658333333,"lng":1.2541666667},{"name":"EBAM","lat":50.7394444444,"lng":3.4861111111},{"name":"EBAW","lat":51.1894444444,"lng":4.4602777778},{"name":"EBBC","lat":51.3052777778,"lng":4.6297222222},{"name":"EBBE","lat":50.7577777778,"lng":4.7669444444},{"name":"EBBH","lat":51.3430555556,"lng":4.6219444444},{"name":"EBBL","lat":51.1683333333,"lng":5.47},{"name":"EBBR","lat":50.9013888889,"lng":4.4844444444},{"name":"EBBT","lat":51.3408333333,"lng":4.5041666667},{"name":"EBBX","lat":49.8916666667,"lng":5.2238888889},{"name":"EBCF","lat":50.1527777778,"lng":4.3872222222},{"name":"EBCH","lat":50.5008333333,"lng":3.9813833333},{"name":"EBCI","lat":50.46,"lng":4.4527777778},{"name":"EBCV","lat":50.5758333333,"lng":3.8311111111},{"name":"EBDR","lat":51.2358333333,"lng":4.4061111111},{"name":"EBDT","lat":50.9991666667,"lng":5.0655555556},{"name":"EBEB","lat":51.1008333333,"lng":3.6536111111},{"name":"EBFN","lat":51.0902777778,"lng":2.6527777778},{"name":"EBFS","lat":50.2433333333,"lng":4.6458333333},{"name":"EBGB","lat":50.9486111111,"lng":4.3919444444},{"name":"EBGG","lat":50.7555555556,"lng":3.8638888889},{"name":"EBGT","lat":51.0205555556,"lng":3.7302777778},{"name":"EBHN","lat":51.3052777778,"lng":4.3905555556},{"name":"EBHT","lat":51.0141666667,"lng":5.36},{"name":"EBKH","lat":51.1808333333,"lng":5.2208333333},{"name":"EBKT","lat":50.8186111111,"lng":3.2091666667},{"name":"EBKW","lat":51.3216666667,"lng":3.2944444444},{"name":"EBLB","lat":50.4816666667,"lng":6.18195},{"name":"EBLE","lat":51.12,"lng":5.3072222222},{"name":"EBLG","lat":50.6363888889,"lng":5.4427777778},{"name":"EBLH","lat":50.6363833333,"lng":5.4427833333},{"name":"EBLO","lat":50.6319444444,"lng":5.5694444444},{"name":"EBLU","lat":50.9919444444,"lng":5.2388888889},{"name":"EBMB","lat":50.9013888889,"lng":4.4844444444},{"name":"EBMO","lat":50.8527777778,"lng":3.1472222222},{"name":"EBMS","lat":50.3216666667,"lng":5.7308333333},{"name":"EBNH","lat":51.1944444444,"lng":2.8547222222},{"name":"EBNM","lat":50.4880555556,"lng":4.7688888889},{"name":"EBOS","lat":51.1988888889,"lng":2.8622222222},{"name":"EBRB","lat":50.9816666667,"lng":3.1258333333},{"name":"EBRR","lat":50.91,"lng":3.1480555556},{"name":"EBSG","lat":50.4575,"lng":3.8202777778},{"name":"EBSH","lat":50.0358333333,"lng":5.4041666667},{"name":"EBSL","lat":50.9475,"lng":5.5905555556},{"name":"EBSP","lat":50.4825,"lng":5.9102777778},{"name":"EBST","lat":50.7919444444,"lng":5.2016666667},{"name":"EBSU","lat":50.0341666667,"lng":5.44},{"name":"EBTN","lat":50.7816666667,"lng":4.9577777778},{"name":"EBTX","lat":50.5525,"lng":5.855},{"name":"EBTY","lat":50.5297222222,"lng":3.4944444444},{"name":"EBUL","lat":51.1441666667,"lng":3.4755555556},{"name":"EBWA","lat":51.1227777778,"lng":4.1277777778},{"name":"EBWE","lat":51.3941666667,"lng":4.9591666667},{"name":"EBWH","lat":51.0783333333,"lng":4.3513888889},{"name":"EBWI","lat":51.0644444444,"lng":3.2594444444},{"name":"EBZH","lat":50.97,"lng":5.375},{"name":"EBZO","lat":50.8172222222,"lng":2.9744444444},{"name":"EBZR","lat":51.2647222222,"lng":4.7533333333},{"name":"EBZW","lat":51.0144444444,"lng":5.5225},{"name":"EDAB","lat":51.1936111111,"lng":14.5197222222},{"name":"EDAC","lat":50.9819444444,"lng":12.5063888889},{"name":"EDAD","lat":51.8322222222,"lng":12.1858333333},{"name":"EDAE","lat":52.1944444444,"lng":14.5880555556},{"name":"EDAG","lat":50.6438888889,"lng":13.1263888889},{"name":"EDAH","lat":53.8786111111,"lng":14.1522222222},{"name":"EDAI","lat":52.8263888889,"lng":12.5419444444},{"name":"EDAJ","lat":50.8808333333,"lng":12.1375},{"name":"EDAK","lat":51.3066666667,"lng":13.5552777778},{"name":"EDAL","lat":52.3897166667,"lng":14.0941666667},{"name":"EDAM","lat":51.3630555556,"lng":11.9408333333},{"name":"EDAN","lat":53.3611111111,"lng":11.6152777778},{"name":"EDAO","lat":51.4930555556,"lng":10.8333333333},{"name":"EDAP","lat":51.685,"lng":14.4230555556},{"name":"EDAQ","lat":51.5522222222,"lng":12.0538888889},{"name":"EDAR","lat":50.9797222222,"lng":13.9086111111},{"name":"EDAS","lat":51.6344444444,"lng":13.6716666667},{"name":"EDAT","lat":51.4516666667,"lng":14.2025},{"name":"EDAU","lat":51.2930555556,"lng":13.3572222222},{"name":"EDAV","lat":52.8263888889,"lng":13.7016666667},{"name":"EDAW","lat":51.5766666667,"lng":12.4958333333},{"name":"EDAX","lat":53.3052777778,"lng":12.7522222222},{"name":"EDAY","lat":52.5802777778,"lng":13.915},{"name":"EDAZ","lat":52.2080555556,"lng":13.1563888889},{"name":"EDBA","lat":50.8419444444,"lng":11.07},{"name":"EDBC","lat":51.8558333333,"lng":11.4180555556},{"name":"EDBD","lat":53.3561166667,"lng":13.7836166667},{"name":"EDBE","lat":52.4363888889,"lng":12.5905555556},{"name":"EDBF","lat":52.7933333333,"lng":12.7602777778},{"name":"EDBG","lat":52.2416666667,"lng":11.8561111111},{"name":"EDBH","lat":54.3380555556,"lng":12.71},{"name":"EDBI","lat":50.7030555556,"lng":12.4594444444},{"name":"EDBJ","lat":50.9155555556,"lng":11.7141666667},{"name":"EDBK","lat":52.9188888889,"lng":12.4252777778},{"name":"EDBL","lat":51.2458333333,"lng":11.6930555556},{"name":"EDBM","lat":52.0736111111,"lng":11.6263888889},{"name":"EDBO","lat":51.8988888889,"lng":13.0558333333},{"name":"EDBP","lat":53.615,"lng":11.5611111111},{"name":"EDBQ","lat":51.6719444444,"lng":13.9619444444},{"name":"EDBR","lat":51.3630555556,"lng":14.95},{"name":"EDBS","lat":51.1988888889,"lng":11.1925},{"name":"EDBT","lat":51.3805555556,"lng":11.4466666667},{"name":"EDBU","lat":53.1805555556,"lng":12.1855555556},{"name":"EDBV","lat":54.3386111111,"lng":13.0469444444},{"name":"EDBW","lat":52.6330555556,"lng":13.7669444444},{"name":"EDBX","lat":51.1588888889,"lng":14.9502777778},{"name":"EDBY","lat":53.9705555556,"lng":13.3441666667},{"name":"EDBZ","lat":51.4897222222,"lng":13.8794444444},{"name":"EDCA","lat":53.8316666667,"lng":13.6730555556},{"name":"EDCB","lat":51.7463888889,"lng":11.2311111111},{"name":"EDCD","lat":51.8894444444,"lng":14.5319444444},{"name":"EDCE","lat":52.4827777778,"lng":14.0908333333},{"name":"EDCF","lat":52.2836111111,"lng":13.8033333333},{"name":"EDCG","lat":54.3838888889,"lng":13.3258333333},{"name":"EDCH","lat":51.0430555556,"lng":12.2330555556},{"name":"EDCI","lat":51.2736111111,"lng":14.5063888889},{"name":"EDCJ","lat":50.7475,"lng":12.8372222222},{"name":"EDCK","lat":51.7225,"lng":11.9472222222},{"name":"EDCL","lat":52.7094444444,"lng":12.0733333333},{"name":"EDCM","lat":51.2969444444,"lng":14.1275},{"name":"EDCN","lat":52.7138833333,"lng":13.0416666667},{"name":"EDCO","lat":51.2677777778,"lng":10.6347222222},{"name":"EDCP","lat":54.1577777778,"lng":13.7725},{"name":"EDCQ","lat":51.7652777778,"lng":11.4986111111},{"name":"EDCR","lat":54.0822222222,"lng":11.655},{"name":"EDCS","lat":52.3091666667,"lng":13.1005555556},{"name":"EDCT","lat":51.3947222222,"lng":12.5369444444},{"name":"EDCU","lat":53.8066666667,"lng":12.2316666667},{"name":"EDCV","lat":53.5055555556,"lng":13.9483333333},{"name":"EDCW","lat":53.9144444444,"lng":11.4994444444},{"name":"EDCX","lat":54.1608333333,"lng":12.2483333333},{"name":"EDCY","lat":51.5769444444,"lng":14.1369444444},{"name":"EDDB","lat":52.3622222222,"lng":13.5005555556},{"name":"EDDC","lat":51.1344444444,"lng":13.7680555556},{"name":"EDDE","lat":50.9797222222,"lng":10.9580555556},{"name":"EDDF","lat":50.0333333333,"lng":8.5705555556},{"name":"EDDG","lat":52.1347222222,"lng":7.6847222222},{"name":"EDDH","lat":53.6302777778,"lng":9.9883333333},{"name":"EDDI","lat":52.4736166667,"lng":13.4016666667},{"name":"EDDK","lat":50.8658333333,"lng":7.1427777778},{"name":"EDDL","lat":51.2808333333,"lng":6.7572222222},{"name":"EDDM","lat":48.3538888889,"lng":11.7861111111},{"name":"EDDN","lat":49.4986111111,"lng":11.0780555556},{"name":"EDDP","lat":51.4238888889,"lng":12.2363888889},{"name":"EDDR","lat":49.2144444444,"lng":7.1094444444},{"name":"EDDS","lat":48.69,"lng":9.2219444444},{"name":"EDDT","lat":52.5597222222,"lng":13.2877777778},{"name":"EDDV","lat":52.4602777778,"lng":9.6836111111},{"name":"EDDW","lat":53.0475,"lng":8.7866666667},{"name":"EDEB","lat":51.1291666667,"lng":10.6216666667},{"name":"EDEF","lat":49.9527777778,"lng":8.9691666667},{"name":"EDEG","lat":50.9705555556,"lng":10.7280555556},{"name":"EDEH","lat":49.345,"lng":8.4877777778},{"name":"EDEL","lat":49.9083333333,"lng":7.9077777778},{"name":"EDEM","lat":51.0627777778,"lng":9.4219444444},{"name":"EDEN","lat":50.8444444444,"lng":9.7072222222},{"name":"EDEP","lat":49.6213888889,"lng":8.625},{"name":"EDEQ","lat":51.2144444444,"lng":10.5425},{"name":"EDER","lat":50.4977777778,"lng":9.9494444444},{"name":"EDEW","lat":49.5816666667,"lng":9.4022222222},{"name":"EDFA","lat":50.2888888889,"lng":8.5352777778},{"name":"EDFB","lat":50.3386111111,"lng":8.8786111111},{"name":"EDFC","lat":49.9388888889,"lng":9.0625},{"name":"EDFD","lat":50.3055555556,"lng":10.2266666667},{"name":"EDFE","lat":49.9608333333,"lng":8.6413888889},{"name":"EDFG","lat":50.1972222222,"lng":9.17},{"name":"EDFH","lat":49.9486111111,"lng":7.2638888889},{"name":"EDFI","lat":50.7883333333,"lng":8.3927777778},{"name":"EDFJ","lat":50.0986111111,"lng":9.8836111111},{"name":"EDFK","lat":50.2105555556,"lng":10.0688888889},{"name":"EDFL","lat":50.5438888889,"lng":8.59},{"name":"EDFM","lat":49.4727777778,"lng":8.5141666667},{"name":"EDFN","lat":50.8738888889,"lng":8.8136111111},{"name":"EDFO","lat":49.6786111111,"lng":8.9722222222},{"name":"EDFP","lat":50.3619444444,"lng":8.7105555556},{"name":"EDFQ","lat":51.0352777778,"lng":8.6808333333},{"name":"EDFR","lat":49.3905555556,"lng":10.2188888889},{"name":"EDFS","lat":50.0105555556,"lng":10.2513888889},{"name":"EDFT","lat":50.6833333333,"lng":9.4102777778},{"name":"EDFU","lat":49.695,"lng":9.1819444444},{"name":"EDFV","lat":49.6063888889,"lng":8.3669444444},{"name":"EDFW","lat":49.8180555556,"lng":9.8972222222},{"name":"EDFX","lat":49.3252777778,"lng":8.5286111111},{"name":"EDFY","lat":50.4269444444,"lng":8.0111111111},{"name":"EDFZ","lat":49.9686111111,"lng":8.1480555556},{"name":"EDGA","lat":50.5927777778,"lng":7.9447222222},{"name":"EDGB","lat":50.6772222222,"lng":8.1702777778},{"name":"EDGE","lat":50.9922222222,"lng":10.4761111111},{"name":"EDGF","lat":50.4758333333,"lng":9.4419444444},{"name":"EDGH","lat":49.7986111111,"lng":9.8369444444},{"name":"EDGI","lat":49.3216666667,"lng":9.6636111111},{"name":"EDGJ","lat":49.6741666667,"lng":10.0716666667},{"name":"EDGK","lat":51.2538888889,"lng":8.8761111111},{"name":"EDGL","lat":49.4863888889,"lng":8.3891666667},{"name":"EDGM","lat":49.3988888889,"lng":9.1238888889},{"name":"EDGO","lat":49.2413888889,"lng":9.2344444444},{"name":"EDGP","lat":49.8405555556,"lng":8.3769444444},{"name":"EDGQ","lat":51,"lng":8.3069444444},{"name":"EDGR","lat":50.5669444444,"lng":8.8697222222},{"name":"EDGS","lat":50.7077777778,"lng":8.0830555556},{"name":"EDGT","lat":50.7947222222,"lng":8.4633333333},{"name":"EDGU","lat":49.5155555556,"lng":9.6683333333},{"name":"EDGW","lat":51.3069444444,"lng":9.1752777778},{"name":"EDGX","lat":49.3038888889,"lng":8.6588888889},{"name":"EDGZ","lat":49.5675,"lng":8.6111111111},{"name":"EDHB","lat":54.2452777778,"lng":11.0247222222},{"name":"EDHC","lat":53.0161111111,"lng":11.1455555556},{"name":"EDHD","lat":51.4075,"lng":10.1452777778},{"name":"EDHE","lat":53.6469444444,"lng":9.7041666667},{"name":"EDHF","lat":53.9944444444,"lng":9.5786111111},{"name":"EDHG","lat":53.2483333333,"lng":10.4586111111},{"name":"EDHI","lat":53.5338888889,"lng":9.8322222222},{"name":"EDHK","lat":54.3794444444,"lng":10.1452777778},{"name":"EDHL","lat":53.8052777778,"lng":10.7191666667},{"name":"EDHM","lat":53.915,"lng":10.0405555556},{"name":"EDHN","lat":54.0786111111,"lng":9.9405555556},{"name":"EDHO","lat":53.6997222222,"lng":9.7405555556},{"name":"EDHP","lat":54.5358333333,"lng":8.6816666667},{"name":"EDHS","lat":53.5613888889,"lng":9.4983333333},{"name":"EDHU","lat":53.2072222222,"lng":9.5738888889},{"name":"EDHW","lat":53.9694444444,"lng":10.2216666667},{"name":"EDHX","lat":53.9427777778,"lng":9.9033333333},{"name":"EDJA","lat":47.9888888889,"lng":10.2394444444},{"name":"EDJG","lat":47.8530555556,"lng":12.5505555556},{"name":"EDKA","lat":50.8230555556,"lng":6.1863888889},{"name":"EDKB","lat":50.7688888889,"lng":7.1638888889},{"name":"EDKD","lat":51.3130555556,"lng":7.7036111111},{"name":"EDKF","lat":51.0516666667,"lng":7.7063888889},{"name":"EDKH","lat":50.9288888889,"lng":7.8991666667},{"name":"EDKI","lat":50.8172222222,"lng":7.8305555556},{"name":"EDKL","lat":51.0152777778,"lng":7.0061111111},{"name":"EDKM","lat":51.3022222222,"lng":8.2375},{"name":"EDKN","lat":51.1236111111,"lng":7.3741666667},{"name":"EDKO","lat":51.4025,"lng":8.6416666667},{"name":"EDKP","lat":51.1919444444,"lng":7.7894444444},{"name":"EDKR","lat":51.1613888889,"lng":8.2608333333},{"name":"EDKU","lat":51.1461111111,"lng":7.9369444444},{"name":"EDKV","lat":50.4058333333,"lng":6.5288888889},{"name":"EDKW","lat":51.2969444444,"lng":7.8169444444},{"name":"EDKZ","lat":51.1008333333,"lng":7.5997222222},{"name":"EDLA","lat":51.4833333333,"lng":7.8994444444},{"name":"EDLB","lat":51.7791666667,"lng":7.2883333333},{"name":"EDLC","lat":51.5288888889,"lng":6.5361111111},{"name":"EDLD","lat":51.6161111111,"lng":6.8611111111},{"name":"EDLE","lat":51.4022222222,"lng":6.9372222222},{"name":"EDLF","lat":51.3338888889,"lng":6.3594444444},{"name":"EDLG","lat":51.6908333333,"lng":6.1041666667},{"name":"EDLH","lat":51.69,"lng":7.8166666667},{"name":"EDLI","lat":51.9647222222,"lng":8.5447222222},{"name":"EDLJ","lat":51.9411111111,"lng":8.9041666667},{"name":"EDLK","lat":51.385,"lng":6.5875},{"name":"EDLM","lat":51.6469444444,"lng":7.1636111111},{"name":"EDLN","lat":51.2302777778,"lng":6.5044444444},{"name":"EDLO","lat":51.9325,"lng":8.6619444444},{"name":"EDLP","lat":51.6141666667,"lng":8.6163888889},{"name":"EDLQ","lat":51.9316666667,"lng":8.0816666667},{"name":"EDLR","lat":51.6883333333,"lng":8.7747222222},{"name":"EDLS","lat":51.9958333333,"lng":6.8405555556},{"name":"EDLT","lat":51.9447222222,"lng":7.7727777778},{"name":"EDLV","lat":51.6025,"lng":6.1422222222},{"name":"EDLW","lat":51.5183333333,"lng":7.6122222222},{"name":"EDLX","lat":51.6627777778,"lng":6.5955555556},{"name":"EDLY","lat":51.8533333333,"lng":6.8147222222},{"name":"EDLZ","lat":51.5780555556,"lng":8.2147222222},{"name":"EDMA","lat":48.4252777778,"lng":10.9316666667},{"name":"EDMB","lat":48.1111111111,"lng":9.7627777778},{"name":"EDMC","lat":48.42,"lng":9.7988888889},{"name":"EDMD","lat":48.2286111111,"lng":11.4230555556},{"name":"EDME","lat":48.3961111111,"lng":12.7236111111},{"name":"EDMF","lat":48.5180555556,"lng":13.3461111111},{"name":"EDMG","lat":48.4872222222,"lng":10.2836111111},{"name":"EDMH","lat":49.1119444444,"lng":10.7816666667},{"name":"EDMI","lat":48.2352777778,"lng":10.1377777778},{"name":"EDMJ","lat":48.1744444444,"lng":11.125},{"name":"EDMK","lat":47.6927777778,"lng":10.3383333333},{"name":"EDML","lat":48.5116666667,"lng":12.0333333333},{"name":"EDMN","lat":48.1088888889,"lng":10.5244444444},{"name":"EDMO","lat":48.0813888889,"lng":11.2830555556},{"name":"EDMP","lat":48.4266666667,"lng":12.3455555556},{"name":"EDMQ","lat":48.7027777778,"lng":10.8508333333},{"name":"EDMR","lat":48.0480555556,"lng":11.6536111111},{"name":"EDMS","lat":48.9008333333,"lng":12.5180555556},{"name":"EDMT","lat":48.0108333333,"lng":10.1008333333},{"name":"EDMU","lat":48.5694444444,"lng":10.3591666667},{"name":"EDMV","lat":48.6352777778,"lng":13.1955555556},{"name":"EDMW","lat":48.83,"lng":12.8797222222},{"name":"EDMX","lat":48.2380555556,"lng":11.5655555556},{"name":"EDMY","lat":48.28,"lng":12.5019444444},{"name":"EDNA","lat":48.2630555556,"lng":12.4111111111},{"name":"EDNB","lat":49.125,"lng":12.985},{"name":"EDNC","lat":49.0213888889,"lng":11.4847222222},{"name":"EDND","lat":49.065,"lng":10.4011111111},{"name":"EDNE","lat":48.3419444444,"lng":9.9166666667},{"name":"EDNF","lat":48.8222222222,"lng":13.3675},{"name":"EDNG","lat":48.635,"lng":10.2155555556},{"name":"EDNH","lat":48.0163888889,"lng":10.6161111111},{"name":"EDNI","lat":49.1305555556,"lng":11.4441666667},{"name":"EDNJ","lat":48.7822222222,"lng":11.2152777778},{"name":"EDNK","lat":48.2386111111,"lng":12.9766666667},{"name":"EDNL","lat":47.8588888889,"lng":10.0144444444},{"name":"EDNM","lat":49.2225,"lng":12.2966666667},{"name":"EDNO","lat":48.8711111111,"lng":10.5058333333},{"name":"EDNP","lat":48.4202777778,"lng":12.8647222222},{"name":"EDNQ","lat":48.8483333333,"lng":10.3338888889},{"name":"EDNR","lat":49.1419444444,"lng":12.0819444444},{"name":"EDNS","lat":48.1794444444,"lng":10.7027777778},{"name":"EDNT","lat":48.9958333333,"lng":10.8847222222},{"name":"EDNU","lat":48.29,"lng":10.4419444444},{"name":"EDNV","lat":47.9461111111,"lng":12.2047222222},{"name":"EDNW","lat":48.2894444444,"lng":10.1402777778},{"name":"EDNX","lat":48.2391666667,"lng":11.5591666667},{"name":"EDNY","lat":47.6713888889,"lng":9.5113888889},{"name":"EDNZ","lat":50.1366666667,"lng":11.7944444444},{"name":"EDOA","lat":50.4972222222,"lng":12.3780555556},{"name":"EDOB","lat":50.9044444444,"lng":11.2569444444},{"name":"EDOC","lat":52.5277777778,"lng":11.3541666667},{"name":"EDOD","lat":51.9011111111,"lng":13.1941666667},{"name":"EDOE","lat":51.2152777778,"lng":12.3677777778},{"name":"EDOF","lat":51.3730555556,"lng":11.1413888889},{"name":"EDOG","lat":51.5711111111,"lng":13.0522222222},{"name":"EDOH","lat":50.9483333333,"lng":13.2616666667},{"name":"EDOI","lat":52.66,"lng":12.7458333333},{"name":"EDOJ","lat":52.1441666667,"lng":12.6697222222},{"name":"EDOK","lat":50.7327777778,"lng":11.2361111111},{"name":"EDOL","lat":52.0402777778,"lng":11.2027777778},{"name":"EDOM","lat":51.9475,"lng":11.7697222222},{"name":"EDON","lat":52.6130555556,"lng":14.2425},{"name":"EDOP","lat":53.4269444444,"lng":11.7833333333},{"name":"EDOQ","lat":51.2969444444,"lng":13.0780555556},{"name":"EDOR","lat":52.7408333333,"lng":12.39},{"name":"EDOS","lat":50.6694444444,"lng":11.0508333333},{"name":"EDOT","lat":50.6441666667,"lng":12.175},{"name":"EDOU","lat":50.965,"lng":11.4002777778},{"name":"EDOV","lat":52.6288888889,"lng":11.82},{"name":"EDOW","lat":53.5686111111,"lng":12.6527777778},{"name":"EDOX","lat":51.5930555556,"lng":12.2372222222},{"name":"EDOY","lat":52.6002777778,"lng":13.5761111111},{"name":"EDOZ","lat":51.9963888889,"lng":11.7922222222},{"name":"EDPA","lat":48.7777777778,"lng":10.2647222222},{"name":"EDPB","lat":48.5627777778,"lng":9.7291666667},{"name":"EDPC","lat":47.9277777778,"lng":12.2886111111},{"name":"EDPD","lat":48.6577777778,"lng":12.5005555556},{"name":"EDPE","lat":48.8769444444,"lng":11.1822222222},{"name":"EDPF","lat":49.3405555556,"lng":12.1847222222},{"name":"EDPG","lat":48.9536111111,"lng":12.4213888889},{"name":"EDPH","lat":49.2686111111,"lng":11.0094444444},{"name":"EDPI","lat":48.4575,"lng":11.9427777778},{"name":"EDPJ","lat":48.4963888889,"lng":9.6391666667},{"name":"EDPK","lat":48.0477777778,"lng":12.5008333333},{"name":"EDPM","lat":48.6780555556,"lng":9.8436111111},{"name":"EDPO","lat":49.2855555556,"lng":11.4447222222},{"name":"EDPQ","lat":49.4297222222,"lng":12.0969444444},{"name":"EDPR","lat":48.7075,"lng":10.7691666667},{"name":"EDPS","lat":48.6827777778,"lng":13.6958333333},{"name":"EDPT","lat":48.6211111111,"lng":10.0611111111},{"name":"EDPU","lat":48.7466666667,"lng":10.005},{"name":"EDPW","lat":49.0641666667,"lng":11.2094444444},{"name":"EDPY","lat":48.9608333333,"lng":10.2366666667},{"name":"EDQA","lat":49.9205555556,"lng":10.9144444444},{"name":"EDQB","lat":49.51,"lng":10.3666666667},{"name":"EDQC","lat":50.2633333333,"lng":10.995},{"name":"EDQD","lat":49.9844444444,"lng":11.6386111111},{"name":"EDQE","lat":49.7938888889,"lng":11.1330555556},{"name":"EDQF","lat":49.3619444444,"lng":10.6697222222},{"name":"EDQG","lat":49.6480555556,"lng":9.9663888889},{"name":"EDQH","lat":49.5827777778,"lng":10.8780555556},{"name":"EDQI","lat":49.6047222222,"lng":11.2838888889},{"name":"EDQK","lat":50.135,"lng":11.4586111111},{"name":"EDQL","lat":50.1483333333,"lng":11.0472222222},{"name":"EDQM","lat":50.2888888889,"lng":11.855},{"name":"EDQN","lat":49.5875,"lng":10.5775},{"name":"EDQO","lat":50.2258333333,"lng":11.7325},{"name":"EDQP","lat":49.8630555556,"lng":11.7877777778},{"name":"EDQR","lat":50.0397222222,"lng":10.8227777778},{"name":"EDQS","lat":50.6322222222,"lng":10.7261111111},{"name":"EDQT","lat":50.0180555556,"lng":10.5294444444},{"name":"EDQW","lat":49.6788888889,"lng":12.1166666667},{"name":"EDQX","lat":49.6422222222,"lng":11.1616666667},{"name":"EDQY","lat":50.2302777778,"lng":10.9958333333},{"name":"EDQZ","lat":49.7622222222,"lng":11.5747222222},{"name":"EDRA","lat":50.5577777778,"lng":7.1372222222},{"name":"EDRB","lat":49.9452777778,"lng":6.565},{"name":"EDRD","lat":49.8427777778,"lng":6.9161111111},{"name":"EDRE","lat":50.3661111111,"lng":7.3152777778},{"name":"EDRF","lat":49.4730555556,"lng":8.1963888889},{"name":"EDRG","lat":49.7327777778,"lng":7.3380555556},{"name":"EDRH","lat":49.6113888889,"lng":7.185},{"name":"EDRI","lat":49.1411111111,"lng":8.3947222222},{"name":"EDRJ","lat":49.3125,"lng":6.6738888889},{"name":"EDRK","lat":50.3255555556,"lng":7.5286111111},{"name":"EDRL","lat":49.3308333333,"lng":8.2052777778},{"name":"EDRM","lat":49.9677777778,"lng":7.1116666667},{"name":"EDRN","lat":49.97,"lng":7.4791666667},{"name":"EDRO","lat":49.0316666667,"lng":7.99},{"name":"EDRP","lat":49.2655555556,"lng":7.4908333333},{"name":"EDRS","lat":49.7908333333,"lng":7.6658333333},{"name":"EDRT","lat":49.8641666667,"lng":6.7877777778},{"name":"EDRV","lat":50.4519444444,"lng":6.7858333333},{"name":"EDRW","lat":50.5663888889,"lng":7.6538888889},{"name":"EDRX","lat":49.3352777778,"lng":7.2658333333},{"name":"EDRY","lat":49.3022222222,"lng":8.4516666667},{"name":"EDRZ","lat":49.2094444444,"lng":7.4005555556},{"name":"EDSA","lat":48.2497222222,"lng":9.0602777778},{"name":"EDSB","lat":48.7794444444,"lng":8.0805555556},{"name":"EDSE","lat":48.6583333333,"lng":9.625},{"name":"EDSG","lat":48.5361111111,"lng":9.4369444444},{"name":"EDSH","lat":48.9197222222,"lng":9.4552777778},{"name":"EDSI","lat":47.7991666667,"lng":8.7205555556},{"name":"EDSK","lat":48.5616666667,"lng":7.8438888889},{"name":"EDSL","lat":47.845,"lng":8.5658333333},{"name":"EDSN","lat":47.9769444444,"lng":8.905},{"name":"EDSP","lat":48.5472222222,"lng":8.9458333333},{"name":"EDSR","lat":47.8027777778,"lng":8.9797222222},{"name":"EDST","lat":48.6319444444,"lng":9.4294444444},{"name":"EDSW","lat":48.27,"lng":7.8422222222},{"name":"EDSZ","lat":48.1866666667,"lng":8.7211111111},{"name":"EDTB","lat":48.7916666667,"lng":8.1866666667},{"name":"EDTC","lat":49.135,"lng":8.5636111111},{"name":"EDTD","lat":47.9736111111,"lng":8.5222222222},{"name":"EDTF","lat":48.0205555556,"lng":7.8336111111},{"name":"EDTG","lat":47.9033333333,"lng":7.6177777778},{"name":"EDTH","lat":48.8022222222,"lng":9.9275},{"name":"EDTK","lat":49.2483333333,"lng":8.8947222222},{"name":"EDTL","lat":48.3691666667,"lng":7.8277777778},{"name":"EDTM","lat":48.0538888889,"lng":9.3727777778},{"name":"EDTN","lat":48.6125,"lng":9.4772222222},{"name":"EDTO","lat":48.4497222222,"lng":7.9247222222},{"name":"EDTP","lat":47.9086111111,"lng":9.2516666667},{"name":"EDTQ","lat":48.8638888889,"lng":9.2241666667},{"name":"EDTR","lat":47.56,"lng":7.7483333333},{"name":"EDTS","lat":48.0658333333,"lng":8.5713888889},{"name":"EDTU","lat":48.0294444444,"lng":9.5072222222},{"name":"EDTW","lat":48.2791666667,"lng":8.4283333333},{"name":"EDTX","lat":49.1186111111,"lng":9.7838888889},{"name":"EDTY","lat":49.1186111111,"lng":9.7838888889},{"name":"EDTZ","lat":47.6819444444,"lng":9.1372222222},{"name":"EDUA","lat":52.6508333333,"lng":12.4877777778},{"name":"EDUB","lat":52.4333333333,"lng":12.4666666667},{"name":"EDUF","lat":51.5477777778,"lng":13.2280555556},{"name":"EDUO","lat":51.5425,"lng":11.5958333333},{"name":"EDUS","lat":51.6075,"lng":13.7380555556},{"name":"EDUT","lat":53.03195,"lng":13.5425},{"name":"EDUW","lat":53.9175,"lng":13.2202777778},{"name":"EDUY","lat":51.5577777778,"lng":14.105},{"name":"EDUZ","lat":52.0008333333,"lng":12.1491666667},{"name":"EDVA","lat":51.8527777778,"lng":10.0266666667},{"name":"EDVC","lat":52.6877777778,"lng":10.1122222222},{"name":"EDVE","lat":52.3194444444,"lng":10.5588888889},{"name":"EDVF","lat":51.9180555556,"lng":9.1133333333},{"name":"EDVG","lat":51.3763888889,"lng":8.9811111111},{"name":"EDVH","lat":52.7625,"lng":9.6083333333},{"name":"EDVI","lat":51.8063888889,"lng":9.3783333333},{"name":"EDVJ","lat":52.0286111111,"lng":10.3683333333},{"name":"EDVK","lat":51.4208333333,"lng":9.3922222222},{"name":"EDVL","lat":51.6111111111,"lng":9.3975},{"name":"EDVM","lat":52.1797222222,"lng":9.9458333333},{"name":"EDVN","lat":51.7066666667,"lng":10.0394444444},{"name":"EDVP","lat":52.4,"lng":10.2333333333},{"name":"EDVQ","lat":52.5244444444,"lng":10.4627777778},{"name":"EDVR","lat":52.1752777778,"lng":9.0533333333},{"name":"EDVS","lat":52.1541666667,"lng":10.4263888889},{"name":"EDVT","lat":51.9513888889,"lng":9.6622222222},{"name":"EDVU","lat":52.9833333333,"lng":10.4652777778},{"name":"EDVW","lat":51.9675,"lng":9.2930555556},{"name":"EDVX","lat":52.4952777778,"lng":10.5108333333},{"name":"EDVY","lat":52.2222222222,"lng":8.8627777778},{"name":"EDVZ","lat":51.3591666667,"lng":9.5025},{"name":"EDWA","lat":54.6286166667,"lng":8.9313833333},{"name":"EDWB","lat":53.5069444444,"lng":8.5727777778},{"name":"EDWC","lat":52.4875,"lng":8.1861111111},{"name":"EDWE","lat":53.3911111111,"lng":7.2255555556},{"name":"EDWF","lat":53.2719444444,"lng":7.4419444444},{"name":"EDWG","lat":53.7863888889,"lng":7.9122222222},{"name":"EDWH","lat":53.0691666667,"lng":8.3136111111},{"name":"EDWI","lat":53.5047222222,"lng":8.0533333333},{"name":"EDWJ","lat":53.6805555556,"lng":7.0577777778},{"name":"EDWK","lat":53.3327777778,"lng":9.0277777778},{"name":"EDWL","lat":53.7427777778,"lng":7.4986111111},{"name":"EDWM","lat":53.0541666667,"lng":9.2086111111},{"name":"EDWN","lat":52.4575,"lng":7.1827777778},{"name":"EDWO","lat":52.2863888889,"lng":7.9733333333},{"name":"EDWP","lat":53.3213888889,"lng":8.0736111111},{"name":"EDWQ","lat":53.0361111111,"lng":8.505},{"name":"EDWR","lat":53.5955555556,"lng":6.7091666667},{"name":"EDWS","lat":53.6330555556,"lng":7.1894444444},{"name":"EDWT","lat":53.5383333333,"lng":8.5383333333},{"name":"EDWU","lat":52.9086111111,"lng":8.0427777778},{"name":"EDWV","lat":52.9652777778,"lng":9.2841666667},{"name":"EDWX","lat":53.2888888889,"lng":7.9313888889},{"name":"EDWY","lat":53.7069444444,"lng":7.2286111111},{"name":"EDWZ","lat":53.7252777778,"lng":7.3722222222},{"name":"EDXA","lat":52.3775,"lng":7.9136111111},{"name":"EDXB","lat":54.1533333333,"lng":8.9016666667},{"name":"EDXC","lat":54.4255555556,"lng":9.5405555556},{"name":"EDXD","lat":52.3513888889,"lng":8.3261111111},{"name":"EDXE","lat":52.2758333333,"lng":7.4913888889},{"name":"EDXF","lat":54.7733333333,"lng":9.3788888889},{"name":"EDXG","lat":52.2008333333,"lng":8.3777777778},{"name":"EDXH","lat":54.1852777778,"lng":7.9158333333},{"name":"EDXI","lat":52.7097222222,"lng":9.1625},{"name":"EDXJ","lat":54.51,"lng":9.1383333333},{"name":"EDXK","lat":54.79,"lng":8.9613888889},{"name":"EDXL","lat":53.1636111111,"lng":7.7927777778},{"name":"EDXM","lat":53.9783333333,"lng":9.1433333333},{"name":"EDXN","lat":53.7669444444,"lng":8.6436111111},{"name":"EDXO","lat":54.3088888889,"lng":8.6866666667},{"name":"EDXP","lat":53.7069444444,"lng":7.8213888889},{"name":"EDXQ","lat":53.1283333333,"lng":9.3486111111},{"name":"EDXR","lat":54.2180555556,"lng":9.6033333333},{"name":"EDXS","lat":53.3358333333,"lng":9.2594444444},{"name":"EDXT","lat":54.0677777778,"lng":10.7430555556},{"name":"EDXU","lat":53.2863888889,"lng":8.9472222222},{"name":"EDXW","lat":54.9116666667,"lng":8.3425},{"name":"EDXY","lat":54.6852777778,"lng":8.5316666667},{"name":"EDXZ","lat":53.5680555556,"lng":8.7894444444},{"name":"EECL","lat":59.4480555556,"lng":24.7533333333},{"name":"EEEI","lat":59.2622222222,"lng":24.2186111111},{"name":"EEHA","lat":59.3558333333,"lng":24.3763888889},{"name":"EEJI","lat":59.3261111111,"lng":27.3930555556},{"name":"EEKA","lat":58.9908333333,"lng":22.8308333333},{"name":"EEKE","lat":58.23,"lng":22.5094444444},{"name":"EEKI","lat":58.1155555556,"lng":25.5527777778},{"name":"EEKU","lat":58.1483333333,"lng":24.0025},{"name":"EELU","lat":59.0230555556,"lng":23.5783333333},{"name":"EENA","lat":59.3897222222,"lng":28.1116666667},{"name":"EEPU","lat":58.4188888889,"lng":24.4727777778},{"name":"EERA","lat":58.9863888889,"lng":24.7244444444},{"name":"EERD","lat":58.0852777778,"lng":25.8988888889},{"name":"EERE","lat":59.3647222222,"lng":26.3530555556},{"name":"EERI","lat":57.9427777778,"lng":26.9777777778},{"name":"EERU","lat":57.7838888889,"lng":23.2661111111},{"name":"EESE","lat":58.1319444444,"lng":22.2583333333},{"name":"EETN","lat":59.4133333333,"lng":24.8325},{"name":"EETU","lat":58.3075,"lng":26.6869444444},{"name":"EEVI","lat":58.35,"lng":25.4930555556},{"name":"EEVO","lat":58.9852777778,"lng":23.2516666667},{"name":"EEVU","lat":57.6333333333,"lng":26.67},{"name":"EFAA","lat":67.6036111111,"lng":23.9716666667},{"name":"EFAH","lat":64.8952777778,"lng":25.7522222222},{"name":"EFAL","lat":62.5547222222,"lng":23.5733333333},{"name":"EFEJ","lat":60.2208333333,"lng":24.6863888889},{"name":"EFEK","lat":69.0022222222,"lng":20.8963888889},{"name":"EFET","lat":68.3644444444,"lng":23.4275},{"name":"EFEU","lat":61.1161111111,"lng":22.2013888889},{"name":"EFFO","lat":60.8019444444,"lng":23.6455555556},{"name":"EFGE","lat":60.0869444444,"lng":22.5219444444},{"name":"EFHA","lat":61.8563888889,"lng":24.7891666667},{"name":"EFHE","lat":60.1477777778,"lng":24.9241666667},{"name":"EFHF","lat":60.2538888889,"lng":25.0441666667},{"name":"EFHH","lat":60.9911111111,"lng":24.4152777778},{"name":"EFHJ","lat":63.7122166667,"lng":25.395},{"name":"EFHK","lat":60.3172222222,"lng":24.9633333333},{"name":"EFHL","lat":64.97,"lng":24.705},{"name":"EFHM","lat":61.6902777778,"lng":23.0741666667},{"name":"EFHN","lat":59.8455555556,"lng":23.0822222222},{"name":"EFHO","lat":65.0036111111,"lng":25.5202777778},{"name":"EFHP","lat":64.1130555556,"lng":25.5041666667},{"name":"EFHS","lat":62.7722222222,"lng":22.8286111111},{"name":"EFHV","lat":60.6544444444,"lng":24.8811111111},{"name":"EFHY","lat":60.1866666667,"lng":24.9080555556},{"name":"EFII","lat":63.6319444444,"lng":27.1222222222},{"name":"EFIK","lat":60.4627777778,"lng":23.6511111111},{"name":"EFIM","lat":61.2497222222,"lng":28.9036111111},{"name":"EFIT","lat":62.1661111111,"lng":30.0736111111},{"name":"EFIV","lat":68.6108333333,"lng":27.4138888889},{"name":"EFJE","lat":62.5908333333,"lng":29.7777777778},{"name":"EFJM","lat":61.7786111111,"lng":22.7161111111},{"name":"EFJO","lat":62.6588888889,"lng":29.6244444444},{"name":"EFJP","lat":68.7113833333,"lng":25.7527833333},{"name":"EFJV","lat":62.23,"lng":25.7113888889},{"name":"EFJY","lat":62.4008333333,"lng":25.6727777778},{"name":"EFKA","lat":63.1241666667,"lng":23.0513888889},{"name":"EFKE","lat":65.7791666667,"lng":24.5847222222},{"name":"EFKG","lat":60.2469444444,"lng":20.8047222222},{"name":"EFKH","lat":64.1125,"lng":29.4386111111},{"name":"EFKI","lat":64.2841666667,"lng":27.6875},{"name":"EFKJ","lat":62.4633333333,"lng":22.3911111111},{"name":"EFKK","lat":63.7202777778,"lng":23.1391666667},{"name":"EFKM","lat":66.7158333333,"lng":27.1572222222},{"name":"EFKN","lat":63.9205555556,"lng":24.0866666667},{"name":"EFKO","lat":64.2286111111,"lng":23.8263888889},{"name":"EFKR","lat":63.9891666667,"lng":25.7436111111},{"name":"EFKS","lat":65.9902777778,"lng":29.2319444444},{"name":"EFKT","lat":67.6986111111,"lng":24.8480555556},{"name":"EFKU","lat":63.0086111111,"lng":27.7944444444},{"name":"EFKV","lat":63.1252777778,"lng":25.1241666667},{"name":"EFKY","lat":60.5713888889,"lng":26.8961111111},{"name":"EFLA","lat":61.1441666667,"lng":25.6930555556},{"name":"EFLL","lat":63.3994444444,"lng":27.4788888889},{"name":"EFLN","lat":63.5119444444,"lng":29.6291666667},{"name":"EFLP","lat":61.0458333333,"lng":28.1486111111},{"name":"EFLR","lat":66.4919444444,"lng":25.7786111111},{"name":"EFMA","lat":60.1219444444,"lng":19.8963888889},{"name":"EFME","lat":62.9466666667,"lng":23.5188888889},{"name":"EFMH","lat":60.1147222222,"lng":19.9330555556},{"name":"EFMI","lat":61.6863888889,"lng":27.2},{"name":"EFMN","lat":60.5725,"lng":25.5088888889},{"name":"EFMP","lat":68.6602833333,"lng":25.7027833333},{"name":"EFNS","lat":60.52,"lng":24.8316666667},{"name":"EFNU","lat":60.3338888889,"lng":24.2963888889},{"name":"EFOP","lat":60.8763888889,"lng":22.7447222222},{"name":"EFOU","lat":64.9291666667,"lng":25.3555555556},{"name":"EFPA","lat":68.1455555556,"lng":25.8227777778},{"name":"EFPE","lat":60.3311111111,"lng":25.0608333333},{"name":"EFPI","lat":61.2452777778,"lng":22.195},{"name":"EFPJ","lat":62.8975,"lng":27.6483333333},{"name":"EFPK","lat":62.2647222222,"lng":27.0027777778},{"name":"EFPL","lat":60.9927777778,"lng":25.57},{"name":"EFPN","lat":61.7288888889,"lng":29.3936111111},{"name":"EFPO","lat":61.4613888889,"lng":21.7977777778},{"name":"EFPT","lat":61.5063888889,"lng":23.8158333333},{"name":"EFPU","lat":65.4022222222,"lng":26.9469444444},{"name":"EFPY","lat":63.7291666667,"lng":25.9319444444},{"name":"EFRA","lat":63.4241666667,"lng":28.1241666667},{"name":"EFRH","lat":64.6880555556,"lng":24.6958333333},{"name":"EFRN","lat":62.0655555556,"lng":28.3566666667},{"name":"EFRO","lat":66.5616666667,"lng":25.8308333333},{"name":"EFRU","lat":65.9730555556,"lng":26.3652777778},{"name":"EFRV","lat":63.7055555556,"lng":26.6163888889},{"name":"EFRY","lat":60.7447222222,"lng":24.1077777778},{"name":"EFSA","lat":61.9427777778,"lng":28.945},{"name":"EFSE","lat":61.0641666667,"lng":26.7955555556},{"name":"EFSI","lat":62.6936111111,"lng":22.8319444444},{"name":"EFSO","lat":67.3966666667,"lng":26.6180555556},{"name":"EFSU","lat":64.8219444444,"lng":28.7102777778},{"name":"EFTO","lat":60.0791666667,"lng":24.1722222222},{"name":"EFTP","lat":61.4152777778,"lng":23.5877777778},{"name":"EFTS","lat":61.7730555556,"lng":24.0252777778},{"name":"EFTU","lat":60.5147222222,"lng":22.2616666667},{"name":"EFTV","lat":60.4530555556,"lng":22.2955555556},{"name":"EFUT","lat":60.8963888889,"lng":26.9380555556},{"name":"EFVA","lat":63.0452777778,"lng":21.7641666667},{"name":"EFVI","lat":63.1225,"lng":25.8161111111},{"name":"EFVL","lat":64.5019444444,"lng":26.76},{"name":"EFVP","lat":61.0397222222,"lng":22.5916666667},{"name":"EFVR","lat":62.1711111111,"lng":27.8686111111},{"name":"EFVT","lat":63.3977777778,"lng":24.0305555556},{"name":"EFWB","lat":60.6636111111,"lng":26.7458333333},{"name":"EFYL","lat":64.0547222222,"lng":24.7252777778},{"name":"EGAA","lat":54.6575,"lng":-6.2158333333},{"name":"EGAB","lat":54.3986111111,"lng":-7.6519444444},{"name":"EGAC","lat":54.6180555556,"lng":-5.8725},{"name":"EGAD","lat":54.5811111111,"lng":-5.6919444444},{"name":"EGAE","lat":55.0427777778,"lng":-7.1619444444},{"name":"EGAL","lat":54.6166666667,"lng":-6.2833333333},{"name":"EGBB","lat":52.4538888889,"lng":-1.7480555556},{"name":"EGBC","lat":51.9258333333,"lng":-2.0544444444},{"name":"EGBD","lat":52.8597222222,"lng":-1.6175},{"name":"EGBE","lat":52.3697222222,"lng":-1.4797222222},{"name":"EGBF","lat":52.2325,"lng":-0.4455555556},{"name":"EGBG","lat":52.6077777778,"lng":-1.0319444444},{"name":"EGBJ","lat":51.8941666667,"lng":-2.1672222222},{"name":"EGBK","lat":52.3061111111,"lng":-0.7922222222},{"name":"EGBL","lat":52.1402777778,"lng":-1.7536111111},{"name":"EGBM","lat":52.8141666667,"lng":-1.7647222222},{"name":"EGBN","lat":52.92,"lng":-1.0791666667},{"name":"EGBO","lat":52.5177777778,"lng":-2.2597222222},{"name":"EGBP","lat":51.6680555556,"lng":-2.0569444444},{"name":"EGBS","lat":52.2416666667,"lng":-2.8811111111},{"name":"EGBT","lat":52.0408333333,"lng":-1.0977777778},{"name":"EGBV","lat":52.0705555556,"lng":-1.0122222222},{"name":"EGBW","lat":52.1922222222,"lng":-1.6144444444},{"name":"EGCA","lat":53.30445,"lng":-1.4291666667},{"name":"EGCB","lat":53.4716666667,"lng":-2.3897222222},{"name":"EGCC","lat":53.3538888889,"lng":-2.275},{"name":"EGCD","lat":53.3380555556,"lng":-2.1488888889},{"name":"EGCE","lat":53.0483333333,"lng":-3.0069444444},{"name":"EGCF","lat":53.5597222222,"lng":-0.8583333333},{"name":"EGCG","lat":53.3111111111,"lng":0.1788888889},{"name":"EGCI","lat":53.5091666667,"lng":-1.1033333333},{"name":"EGCJ","lat":53.7841666667,"lng":-1.2177777778},{"name":"EGCK","lat":53.1016666667,"lng":-4.3375},{"name":"EGCL","lat":52.7394444444,"lng":-0.03},{"name":"EGCN","lat":53.4752777778,"lng":-1.0041666667},{"name":"EGCO","lat":53.6452777778,"lng":-3.0286111111},{"name":"EGCP","lat":53.6166666667,"lng":-0.9666666667},{"name":"EGCS","lat":53.3811111111,"lng":-0.6852777778},{"name":"EGCT","lat":52.9305555556,"lng":-2.645},{"name":"EGCV","lat":52.8347222222,"lng":-2.7702777778},{"name":"EGCW","lat":52.6294444444,"lng":-3.1525},{"name":"EGDC","lat":51.0869444444,"lng":-4.1502777778},{"name":"EGDG","lat":50.4366666667,"lng":-4.98695},{"name":"EGDJ","lat":51.2833333333,"lng":-1.7833333333},{"name":"EGDL","lat":51.505,"lng":-1.9933333333},{"name":"EGDM","lat":51.1519444444,"lng":-1.7472222222},{"name":"EGDN","lat":51.2472222222,"lng":-1.7541666667},{"name":"EGDP","lat":50.5666666667,"lng":-2.45},{"name":"EGDR","lat":50.0858333333,"lng":-5.2555555556},{"name":"EGDW","lat":50.9625,"lng":-2.93555555},{"name":"EGDX","lat":51.4047222222,"lng":-3.4355555556},{"name":"EGDY","lat":51.0091666667,"lng":-2.6386111111},{"name":"EGEA","lat":57.1197166667,"lng":-2.3208333333},{"name":"EGEC","lat":55.4375,"lng":-5.6880555556},{"name":"EGED","lat":59.1905555556,"lng":-2.7722222222},{"name":"EGEF","lat":59.5347222222,"lng":-1.6286111111},{"name":"EGEH","lat":60.3777777778,"lng":-0.9833333333},{"name":"EGEL","lat":56.6019444444,"lng":-6.6177777778},{"name":"EGEN","lat":59.3675,"lng":-2.4344444444},{"name":"EGEO","lat":56.4636111111,"lng":-5.4},{"name":"EGEP","lat":59.3516666667,"lng":-2.9002777778},{"name":"EGER","lat":59.1552777778,"lng":-2.6413888889},{"name":"EGES","lat":59.2502777778,"lng":-2.5766666667},{"name":"EGET","lat":60.1919444444,"lng":-1.2436111111},{"name":"EGEW","lat":59.3502777778,"lng":-2.95},{"name":"EGEY","lat":56.0575,"lng":-6.2430555556},{"name":"EGFA","lat":52.1147222222,"lng":-4.5594444444},{"name":"EGFC","lat":51.4675,"lng":-3.1375},{"name":"EGFE","lat":51.8330555556,"lng":-4.9611111111},{"name":"EGFF","lat":51.3966666667,"lng":-3.3433333333},{"name":"EGFH","lat":51.6052777778,"lng":-4.0677777778},{"name":"EGFO","lat":60.1166666667,"lng":-2.05},{"name":"EGFP","lat":51.7138888889,"lng":-4.3122222222},{"name":"EGGD","lat":51.3827777778,"lng":-2.7191666667},{"name":"EGGP","lat":53.3336111111,"lng":-2.8497222222},{"name":"EGGW","lat":51.8747222222,"lng":-0.3683333333},{"name":"EGHA","lat":50.9672222222,"lng":-2.1536111111},{"name":"EGHB","lat":51.3388888889,"lng":1.1530555556},{"name":"EGHC","lat":50.1027777778,"lng":-5.6705555556},{"name":"EGHD","lat":50.4227777778,"lng":-4.1058333333},{"name":"EGHE","lat":49.9133333333,"lng":-6.2916666667},{"name":"EGHF","lat":50.8141666667,"lng":-1.2033333333},{"name":"EGHG","lat":50.94,"lng":-2.6586111111},{"name":"EGHH","lat":50.78,"lng":-1.8425},{"name":"EGHI","lat":50.9502777778,"lng":-1.3566666667},{"name":"EGHJ","lat":50.6780555556,"lng":-1.1094444444},{"name":"EGHK","lat":50.12805,"lng":-5.5183333333},{"name":"EGHL","lat":51.185,"lng":-1.0322222222},{"name":"EGHN","lat":50.6530555556,"lng":-1.1822222222},{"name":"EGHO","lat":51.2105555556,"lng":-1.6},{"name":"EGHP","lat":51.1938888889,"lng":-1.2347222222},{"name":"EGHQ","lat":50.4408333333,"lng":-4.9952777778},{"name":"EGHR","lat":50.8594444444,"lng":-0.7591666667},{"name":"EGHS","lat":50.9666666667,"lng":-2.4166666667},{"name":"EGHT","lat":49.9455555556,"lng":-6.3313888889},{"name":"EGHU","lat":50.9286111111,"lng":-3.9894444444},{"name":"EGHY","lat":50.2788833333,"lng":-5.14945},{"name":"EGJA","lat":49.7066666667,"lng":-2.2144444444},{"name":"EGJB","lat":49.4347222222,"lng":-2.6019444444},{"name":"EGJJ","lat":49.2080555556,"lng":-2.1955555556},{"name":"EGKA","lat":50.8355555556,"lng":-0.2972222222},{"name":"EGKB","lat":51.3308333333,"lng":0.0325},{"name":"EGKD","lat":50.9288888889,"lng":-0.2136111111},{"name":"EGKE","lat":51.2,"lng":0.8166666667},{"name":"EGKG","lat":50.9005555556,"lng":-0.7397222222},{"name":"EGKH","lat":51.1566666667,"lng":0.6425},{"name":"EGKK","lat":51.1480555556,"lng":-0.1902777778},{"name":"EGKL","lat":50.8819444444,"lng":0.155},{"name":"EGKR","lat":51.2136111111,"lng":-0.1386111111},{"name":"EGLA","lat":50.4997222167,"lng":-4.6658333333},{"name":"EGLB","lat":51.3666666667,"lng":-0.4666666667},{"name":"EGLC","lat":51.5052777778,"lng":0.0552777778},{"name":"EGLD","lat":51.5883333333,"lng":-0.5130555556},{"name":"EGLF","lat":51.2752777778,"lng":-0.7775},{"name":"EGLG","lat":51.8019444444,"lng":-0.1583333333},{"name":"EGLJ","lat":51.6744444444,"lng":-1.0852777778},{"name":"EGLK","lat":51.3238888889,"lng":-0.8475},{"name":"EGLL","lat":51.4775,"lng":-0.4613888889},{"name":"EGLM","lat":51.5008333333,"lng":-0.7744444444},{"name":"EGLS","lat":51.0988888889,"lng":-1.7841666667},{"name":"EGLT","lat":51.4208333333,"lng":-0.6594444444},{"name":"EGLW","lat":51.47,"lng":-0.1794444444},{"name":"EGMA","lat":52.0775,"lng":0.0616666667},{"name":"EGMC","lat":51.5702777778,"lng":0.6933333333},{"name":"EGMD","lat":50.9561111111,"lng":0.9391666667},{"name":"EGMF","lat":51.33,"lng":0.6027777778},{"name":"EGMH","lat":51.3422222222,"lng":1.3461111111},{"name":"EGML","lat":51.5286111111,"lng":0.2455555556},{"name":"EGMT","lat":51.5380555556,"lng":0.3666666667},{"name":"EGNA","lat":53.0144444444,"lng":-1.2183333333},{"name":"EGNB","lat":53.7194444444,"lng":-0.5661111111},{"name":"EGNC","lat":54.9375,"lng":-2.8091666667},{"name":"EGNE","lat":53.2805555556,"lng":-0.9513888889},{"name":"EGNF","lat":53.3169444444,"lng":-1.1963888889},{"name":"EGNG","lat":54.2083333333,"lng":-1.2902777778},{"name":"EGNH","lat":53.7716666667,"lng":-3.0286111111},{"name":"EGNI","lat":53.1833333333,"lng":0.3333333333},{"name":"EGNJ","lat":53.5744444444,"lng":-0.3508333333},{"name":"EGNL","lat":54.1286111111,"lng":-3.2672222222},{"name":"EGNM","lat":53.8658333333,"lng":-1.6605555556},{"name":"EGNO","lat":53.745,"lng":-2.8838888889},{"name":"EGNP","lat":53.8780555556,"lng":-1.6622222222},{"name":"EGNR","lat":53.1780555556,"lng":-2.9777777778},{"name":"EGNS","lat":54.0833333333,"lng":-4.6233333333},{"name":"EGNT","lat":55.0380555556,"lng":-1.6897222222},{"name":"EGNU","lat":53.9805555556,"lng":-0.8647222222},{"name":"EGNV","lat":54.5091666667,"lng":-1.4294444444},{"name":"EGNW","lat":53.3169444444,"lng":-0.3488888889},{"name":"EGNX","lat":52.8311111111,"lng":-1.3277777778},{"name":"EGNY","lat":53.8983333333,"lng":-0.3613888889},{"name":"EGOA","lat":54.65,"lng":-6.2166666667},{"name":"EGOD","lat":52.8052777778,"lng":-4.1269444444},{"name":"EGOE","lat":52.8711111111,"lng":-2.5333333333},{"name":"EGOP","lat":51.7333333333,"lng":-4.3625},{"name":"EGOQ","lat":53.2652777778,"lng":-4.3772222222},{"name":"EGOS","lat":52.7980555556,"lng":-2.6677777778},{"name":"EGOU","lat":60.4166666667,"lng":-0.7666666667},{"name":"EGOV","lat":53.2480555556,"lng":-4.5352777778},{"name":"EGOW","lat":53.5813888889,"lng":-3.0552777778},{"name":"EGOY","lat":54.85,"lng":-4.9333333333},{"name":"EGPA","lat":58.9580555556,"lng":-2.9005555556},{"name":"EGPB","lat":59.8813888889,"lng":-1.2938888889},{"name":"EGPC","lat":58.4588888889,"lng":-3.0930555556},{"name":"EGPD","lat":57.2025,"lng":-2.1980555556},{"name":"EGPE","lat":57.5425,"lng":-4.0475},{"name":"EGPF","lat":55.8719444444,"lng":-4.4330555556},{"name":"EGPG","lat":55.9747222222,"lng":-3.9755555556},{"name":"EGPH","lat":55.95,"lng":-3.3725},{"name":"EGPI","lat":55.6833333333,"lng":-6.2597222222},{"name":"EGPJ","lat":56.1833333333,"lng":-3.2202777778},{"name":"EGPK","lat":55.5094444444,"lng":-4.5944444444},{"name":"EGPL","lat":57.4811111111,"lng":-7.3627777778},{"name":"EGPM","lat":60.4327777778,"lng":-1.2961111111},{"name":"EGPN","lat":56.4525,"lng":-3.0258333333},{"name":"EGPO","lat":58.2155555556,"lng":-6.3311111111},{"name":"EGPR","lat":57.0227777778,"lng":-7.4430555556},{"name":"EGPS","lat":57.5186111111,"lng":-1.8661111111},{"name":"EGPT","lat":56.4411111111,"lng":-3.3738888889},{"name":"EGPU","lat":56.4991666667,"lng":-6.8691666667},{"name":"EGPW","lat":60.7472166667,"lng":-0.8538833333},{"name":"EGQB","lat":55.0613888889,"lng":-7.0138888889},{"name":"EGQD","lat":54.5166666667,"lng":-6.1011111111},{"name":"EGQK","lat":57.6491666667,"lng":-3.5605555556},{"name":"EGQL","lat":56.3727777778,"lng":-2.8683333333},{"name":"EGQM","lat":55.4166666667,"lng":-1.6},{"name":"EGQS","lat":57.705,"lng":-3.3391666667},{"name":"EGSA","lat":52.6166666667,"lng":0.9166666667},{"name":"EGSB","lat":52.1333333333,"lng":-0.4},{"name":"EGSC","lat":52.205,"lng":0.175},{"name":"EGSD","lat":52.6347222222,"lng":1.725},{"name":"EGSF","lat":52.4680555556,"lng":-0.2508333333},{"name":"EGSG","lat":51.6525,"lng":0.1561111111},{"name":"EGSH","lat":52.6758333333,"lng":1.2827777778},{"name":"EGSI","lat":52.65,"lng":0.3},{"name":"EGSJ","lat":52.5111111111,"lng":1.4172222222},{"name":"EGSK","lat":52.5625,"lng":1.175},{"name":"EGSL","lat":51.895,"lng":0.4491666667},{"name":"EGSM","lat":52.4352777778,"lng":1.6183333333},{"name":"EGSN","lat":52.2105555556,"lng":-0.0425},{"name":"EGSO","lat":52.1711111111,"lng":1.1111111111},{"name":"EGSP","lat":52.5558333333,"lng":-0.3863888889},{"name":"EGSQ","lat":51.785,"lng":1.13},{"name":"EGSR","lat":51.9144444444,"lng":0.6825},{"name":"EGSS","lat":51.885,"lng":0.235},{"name":"EGST","lat":52.0755555556,"lng":0.9780555556},{"name":"EGSU","lat":52.0908333333,"lng":0.1319444444},{"name":"EGSV","lat":52.4975,"lng":1.0519444444},{"name":"EGSW","lat":51.2416666667,"lng":0.3722222222},{"name":"EGSX","lat":51.7211111111,"lng":0.1558333333},{"name":"EGSY","lat":53.3941666667,"lng":-1.3883333333},{"name":"EGSZ","lat":60.3333333333,"lng":-1.7},{"name":"EGTA","lat":51.7813888889,"lng":-0.9425},{"name":"EGTB","lat":51.6116666667,"lng":-0.8083333333},{"name":"EGTC","lat":52.0722222222,"lng":-0.6166666667},{"name":"EGTD","lat":51.1172222222,"lng":-0.5358333333},{"name":"EGTE","lat":50.7344444444,"lng":-3.4138888889},{"name":"EGTF","lat":51.3480555556,"lng":-0.5586111111},{"name":"EGTG","lat":51.51945,"lng":-2.5908333333},{"name":"EGTH","lat":52.0866666667,"lng":-0.3186111111},{"name":"EGTK","lat":51.8369444444,"lng":-1.32},{"name":"EGTO","lat":51.3519444444,"lng":0.5027777778},{"name":"EGTP","lat":50.3305555556,"lng":-5.1794444444},{"name":"EGTR","lat":51.6558333333,"lng":-0.3258333333},{"name":"EGTU","lat":50.86,"lng":-3.2347222222},{"name":"EGTW","lat":51.6316666667,"lng":-2.0133333333},{"name":"EGUB","lat":51.6161111111,"lng":-1.0955555556},{"name":"EGUC","lat":52.1,"lng":-4.55},{"name":"EGUL","lat":52.4091666667,"lng":0.5608333333},{"name":"EGUM","lat":51.35,"lng":1.35},{"name":"EGUN","lat":52.3616666667,"lng":0.4863888889},{"name":"EGUO","lat":51.4388888889,"lng":-2.2863888889},{"name":"EGUS","lat":50.8147166667,"lng":-1.20555},{"name":"EGUW","lat":52.1272222222,"lng":0.9558333333},{"name":"EGUY","lat":52.3569444444,"lng":-0.1077777778},{"name":"EGVA","lat":51.6819444444,"lng":-1.79},{"name":"EGVF","lat":50.8347222222,"lng":-1.1677777778},{"name":"EGVN","lat":51.7497222222,"lng":-1.5836111111},{"name":"EGVO","lat":51.2341666667,"lng":-0.9427777778},{"name":"EGVP","lat":51.15,"lng":-1.5666666667},{"name":"EGWC","lat":52.64,"lng":-2.3055555556},{"name":"EGWE","lat":52.0213888889,"lng":-0.3027777778},{"name":"EGWN","lat":51.7833333333,"lng":-0.75},{"name":"EGWU","lat":51.5530555556,"lng":-0.4183333333},{"name":"EGXC","lat":53.0927777778,"lng":-0.1658333333},{"name":"EGXD","lat":54.1369444444,"lng":-1.42},{"name":"EGXE","lat":54.2922222222,"lng":-1.535},{"name":"EGXG","lat":53.8341666667,"lng":-1.1952777778},{"name":"EGXH","lat":52.3425,"lng":0.7727777778},{"name":"EGXJ","lat":52.7355555556,"lng":-0.6486111111},{"name":"EGXN","lat":52.95,"lng":-0.9833333333},{"name":"EGXP","lat":53.3075,"lng":-0.5508333333},{"name":"EGXT","lat":52.6125,"lng":-0.4763888889},{"name":"EGXU","lat":54.0494444444,"lng":-1.2519444444},{"name":"EGXV","lat":53.5833333333,"lng":-0.4333333333},{"name":"EGXW","lat":53.1661111111,"lng":-0.5236111111},{"name":"EGXZ","lat":54.2052777778,"lng":-1.3819444444},{"name":"EGYC","lat":52.7547222222,"lng":1.3572222222},{"name":"EGYD","lat":53.0305555556,"lng":-0.4811111111},{"name":"EGYE","lat":52.9622222222,"lng":-0.5613888889},{"name":"EGYM","lat":52.6483333333,"lng":0.5502777778},{"name":"EGYP","lat":-51.8227777778,"lng":-58.4472222222},{"name":"EHAK","lat":55.3991666667,"lng":3.8102777778},{"name":"EHAL","lat":53.4516666667,"lng":5.6772222222},{"name":"EHAM","lat":52.3080555556,"lng":4.7641666667},{"name":"EHBD","lat":51.2544444444,"lng":5.6008333333},{"name":"EHBK","lat":50.9158333333,"lng":5.7769444444},{"name":"EHBL","lat":55.2847222222,"lng":4.0966666667},{"name":"EHDL","lat":52.0597222222,"lng":5.8719444444},{"name":"EHDP","lat":51.5172222222,"lng":5.8555555556},{"name":"EHDR","lat":53.1180555556,"lng":6.1291666667},{"name":"EHDT","lat":54.3422222222,"lng":2.8644444444},{"name":"EHDU","lat":54.3303333333,"lng":2.9348333333},{"name":"EHDV","lat":54.3247222222,"lng":2.9341666667},{"name":"EHEH","lat":51.45,"lng":5.3744444444},{"name":"EHER","lat":54.0980555556,"lng":3.3602777778},{"name":"EHET","lat":54.1202777778,"lng":3.9288888889},{"name":"EHFB","lat":54.9444444444,"lng":4.5725},{"name":"EHFC","lat":54.8530555556,"lng":4.7261111111},{"name":"EHFD","lat":54.8530555556,"lng":4.6947222222},{"name":"EHFE","lat":54.9852777778,"lng":4.9},{"name":"EHFO","lat":54.2158333333,"lng":4.8272222222},{"name":"EHFQ","lat":53.9605555556,"lng":4.4961111111},{"name":"EHFR","lat":53.8108333333,"lng":4.3511111111},{"name":"EHFZ","lat":54.1158333333,"lng":4.0105555556},{"name":"EHGG","lat":53.125,"lng":6.5833333333},{"name":"EHGN","lat":54.2238888889,"lng":5.4986111111},{"name":"EHGO","lat":54.1694444444,"lng":5.4347222222},{"name":"EHGP","lat":54.1252777778,"lng":5.2022222222},{"name":"EHGQ","lat":54.0491666667,"lng":5.4319444444},{"name":"EHGR","lat":51.5675,"lng":4.9319444444},{"name":"EHGS","lat":54.1191666667,"lng":5.2630555556},{"name":"EHHA","lat":52.4133333333,"lng":4.8041666667},{"name":"EHHG","lat":54.5166666667,"lng":6.0336111111},{"name":"EHHJ","lat":54.3541666667,"lng":6.025},{"name":"EHHO","lat":52.7308333333,"lng":6.5161111111},{"name":"EHHV","lat":52.1919444444,"lng":5.1469444444},{"name":"EHJA","lat":53.8233333333,"lng":2.9438888889},{"name":"EHJB","lat":53.8430555556,"lng":3.0780555556},{"name":"EHJC","lat":53.9486111111,"lng":3.6622222222},{"name":"EHJD","lat":53.765,"lng":3.1952777778},{"name":"EHJE","lat":53.7502777778,"lng":3.3094444444},{"name":"EHJF","lat":53.6955555556,"lng":3.3388888889},{"name":"EHJG","lat":53.7138888889,"lng":3.4272222222},{"name":"EHJH","lat":53.7105555556,"lng":3.5111111111},{"name":"EHJI","lat":53.6908333333,"lng":3.4872222222},{"name":"EHJJ","lat":53.815,"lng":3.4494444444},{"name":"EHJK","lat":53.5719444444,"lng":3.3036111111},{"name":"EHJL","lat":53.5491666667,"lng":3.2658333333},{"name":"EHJM","lat":53.4994444444,"lng":3.3688888889},{"name":"EHJN","lat":53.5413888889,"lng":3.4222222222},{"name":"EHJO","lat":53.5144444444,"lng":3.4175},{"name":"EHJQ","lat":53.3616666667,"lng":3.2525},{"name":"EHJR","lat":53.2172222222,"lng":3.2188888889},{"name":"EHKA","lat":53.8233333333,"lng":4.0497222222},{"name":"EHKB","lat":53.7525,"lng":3.9147222222},{"name":"EHKC","lat":53.7255555556,"lng":3.8044444444},{"name":"EHKD","lat":52.9236111111,"lng":4.7805555556},{"name":"EHKE","lat":53.6983333333,"lng":3.8688888889},{"name":"EHKF","lat":53.6986111111,"lng":3.7477777778},{"name":"EHKG","lat":53.675,"lng":3.8283333333},{"name":"EHKH","lat":53.6525,"lng":3.8727777778},{"name":"EHKI","lat":53.6761111111,"lng":4.0011111111},{"name":"EHKJ","lat":53.7244444444,"lng":4.0975},{"name":"EHKK","lat":53.5508333333,"lng":3.7794444444},{"name":"EHKL","lat":53.52,"lng":3.9925},{"name":"EHKM","lat":53.4758333333,"lng":3.7872222222},{"name":"EHKN","lat":53.4583333333,"lng":3.9044444444},{"name":"EHKO","lat":53.4216666667,"lng":3.885},{"name":"EHKP","lat":53.3408333333,"lng":3.8936111111},{"name":"EHKQ","lat":53.3552777778,"lng":3.9822222222},{"name":"EHKR","lat":53.3052777778,"lng":3.9466666667},{"name":"EHKS","lat":53.2755555556,"lng":3.8716666667},{"name":"EHKT","lat":53.2472222222,"lng":3.9861111111},{"name":"EHKU","lat":53.2166666667,"lng":3.9191666667},{"name":"EHKV","lat":53.2686111111,"lng":3.6266666667},{"name":"EHKW","lat":53.2686111111,"lng":3.6263888889},{"name":"EHKX","lat":53.4227777778,"lng":3.9602777778},{"name":"EHKY","lat":53.2519444444,"lng":3.7625},{"name":"EHKZ","lat":53.1905555556,"lng":3.5783333333},{"name":"EHLA","lat":53.5994444444,"lng":4.0822222222},{"name":"EHLB","lat":53.6244444444,"lng":4.1436111111},{"name":"EHLC","lat":53.6083333333,"lng":4.2052777778},{"name":"EHLD","lat":53.5719444444,"lng":4.1752777778},{"name":"EHLE","lat":52.4602777778,"lng":5.5272222222},{"name":"EHLF","lat":53.5372222222,"lng":4.2022222222},{"name":"EHLG","lat":53.4902777778,"lng":4.1952777778},{"name":"EHLH","lat":53.4566666667,"lng":4.2316666667},{"name":"EHLI","lat":53.4316666667,"lng":4.2355555556},{"name":"EHLJ","lat":53.4183333333,"lng":4.1836111111},{"name":"EHLK","lat":53.4088888889,"lng":4.2136111111},{"name":"EHLL","lat":53.4033333333,"lng":4.2005555556},{"name":"EHLM","lat":53.4052777778,"lng":4.0225},{"name":"EHLN","lat":53.3930555556,"lng":4.2008333333},{"name":"EHLO","lat":53.3863888889,"lng":4.2594444444},{"name":"EHLP","lat":53.3130555556,"lng":4.2466666667},{"name":"EHLQ","lat":53.2833333333,"lng":4.2083333333},{"name":"EHLR","lat":53.2619444444,"lng":4.2463888889},{"name":"EHLS","lat":53.7041666667,"lng":4.6022222222},{"name":"EHLT","lat":53.6605555556,"lng":4.5394444444},{"name":"EHLU","lat":53.64,"lng":4.5625},{"name":"EHLV","lat":53.5836111111,"lng":4.4708333333},{"name":"EHLW","lat":53.2252777778,"lng":5.7525},{"name":"EHLX","lat":53.4722222222,"lng":4.4894444444},{"name":"EHLY","lat":53.5811111111,"lng":4.6027777778},{"name":"EHLZ","lat":53.5638888889,"lng":4.5666666667},{"name":"EHMA","lat":53.4919444444,"lng":5.9402777778},{"name":"EHMB","lat":53.4833333333,"lng":5.8669444444},{"name":"EHMF","lat":53.6958333333,"lng":4.6452777778},{"name":"EHMG","lat":53.6144444444,"lng":4.9602777778},{"name":"EHMR","lat":53.3294444444,"lng":4.8308333333},{"name":"EHMZ","lat":51.5122222222,"lng":3.7311111111},{"name":"EHPB","lat":52.755,"lng":3.7561111111},{"name":"EHPC","lat":52.7002777778,"lng":3.7255555556},{"name":"EHPD","lat":52.7372222222,"lng":3.8036111111},{"name":"EHPE","lat":52.6794444444,"lng":3.7813888889},{"name":"EHPF","lat":52.5525,"lng":3.7408333333},{"name":"EHPG","lat":52.36,"lng":3.3419444444},{"name":"EHPH","lat":52.4058333333,"lng":3.7586111111},{"name":"EHPI","lat":52.32445,"lng":3.6411166667},{"name":"EHPJ","lat":52.3058333333,"lng":3.685},{"name":"EHPK","lat":52.2902777778,"lng":3.8161111111},{"name":"EHPL","lat":52.2225,"lng":3.7394444444},{"name":"EHPM","lat":52.1716666667,"lng":3.8677777778},{"name":"EHPN","lat":52.1269444444,"lng":3.9377777778},{"name":"EHQA","lat":53.0813888889,"lng":3.9641666667},{"name":"EHQB","lat":52.9722222222,"lng":4.1061111111},{"name":"EHQC","lat":53.0141666667,"lng":4.2161111111},{"name":"EHQD","lat":52.9202777778,"lng":4.0980555556},{"name":"EHQE","lat":52.9241666667,"lng":4.15},{"name":"EHQF","lat":52.8711111111,"lng":4.1416666667},{"name":"EHQG","lat":52.8816666667,"lng":4.3188888889},{"name":"EHQH","lat":52.8255555556,"lng":4.2833333333},{"name":"EHQI","lat":52.7786111111,"lng":4.2666666667},{"name":"EHQJ","lat":52.7163888889,"lng":4.2997222222},{"name":"EHQK","lat":52.6397222222,"lng":4.4227777778},{"name":"EHQL","lat":52.5947222222,"lng":4.5288888889},{"name":"EHRD","lat":51.9569444444,"lng":4.4372222222},{"name":"EHSA","lat":51.9975,"lng":3.2741666667},{"name":"EHSB","lat":52.1272166667,"lng":5.2761166667},{"name":"EHSC","lat":51.925,"lng":3.6683333333},{"name":"EHSE","lat":51.5547222222,"lng":4.5525},{"name":"EHST","lat":52.9986111111,"lng":7.0227777778},{"name":"EHTE","lat":52.2447222222,"lng":6.0466666667},{"name":"EHTL","lat":52.0572222222,"lng":5.9244444444},{"name":"EHTP","lat":51.9594444444,"lng":4.09},{"name":"EHTW","lat":52.2758333333,"lng":6.8891666667},{"name":"EHTX","lat":53.1152777778,"lng":4.8336111111},{"name":"EHVB","lat":52.1672166667,"lng":4.4183333333},{"name":"EHVK","lat":51.6572222222,"lng":5.7077777778},{"name":"EHWO","lat":51.4488888889,"lng":4.3422222222},{"name":"EHYP","lat":52.47,"lng":4.595},{"name":"EIAB","lat":53.5913888889,"lng":-7.6427777778},{"name":"EIBN","lat":51.6688888889,"lng":-9.4844444444},{"name":"EIBR","lat":53.0708333333,"lng":-7.8986111111},{"name":"EIBT","lat":54.2227777778,"lng":-10.0308333333},{"name":"EICA","lat":53.2305555556,"lng":-9.4683333333},{"name":"EICK","lat":51.8413888889,"lng":-8.4911111111},{"name":"EICL","lat":53.2497222222,"lng":-7.1233333333},{"name":"EICM","lat":53.3002777778,"lng":-8.9416666667},{"name":"EICN","lat":52.6663888889,"lng":-8.6819444444},{"name":"EIDL","lat":55.0441666667,"lng":-8.3411111111},{"name":"EIDW","lat":53.4213888889,"lng":-6.27},{"name":"EIER","lat":52.8125,"lng":-8.2822166667},{"name":"EIFR","lat":54.4927777778,"lng":-8.2444444444},{"name":"EIHN","lat":52.855,"lng":-6.5472222222},{"name":"EIIH","lat":52.8922166667,"lng":-7.2627833333},{"name":"EIIM","lat":53.1069444444,"lng":-9.6530555556},{"name":"EIIR","lat":53.0644444444,"lng":-9.5108333333},{"name":"EIKG","lat":51.3716666667,"lng":-7.945},{"name":"EIKH","lat":53.0636111111,"lng":-6.8552777778},{"name":"EIKK","lat":52.6508333333,"lng":-7.2961111111},{"name":"EIKN","lat":53.9102777778,"lng":-8.8186111111},{"name":"EIKY","lat":52.1808333333,"lng":-9.5238888889},{"name":"EIME","lat":53.3027777778,"lng":-6.4427777778},{"name":"EIMH","lat":53.6377777778,"lng":-6.8786111111},{"name":"EIMN","lat":53.0930555556,"lng":-9.5680555556},{"name":"EIMS","lat":52.9305555556,"lng":-8.4244444444},{"name":"EIMY","lat":52.7030555556,"lng":-7.7055555556},{"name":"EINC","lat":53.0727777778,"lng":-6.0363888889},{"name":"EINN","lat":52.7019444444,"lng":-8.9247222222},{"name":"EIRT","lat":52.1055555556,"lng":-8.9833333333},{"name":"EISG","lat":54.2802777778,"lng":-8.5991666667},{"name":"EITM","lat":53.575,"lng":-6.7386111111},{"name":"EITT","lat":53.5436111111,"lng":-6.5319444444},{"name":"EIWF","lat":52.1872222222,"lng":-7.0869444444},{"name":"EIWT","lat":53.3522222222,"lng":-6.4883333333},{"name":"EKAE","lat":54.8525,"lng":10.4563888889},{"name":"EKAF","lat":55.7913888889,"lng":3.9944444444},{"name":"EKAH","lat":56.3,"lng":10.6188888889},{"name":"EKAL","lat":55.8666666667,"lng":12.3166666667},{"name":"EKAO","lat":54.8833333333,"lng":10.4},{"name":"EKAR","lat":56.0802777778,"lng":4.2302777778},{"name":"EKAS","lat":56.1897222222,"lng":10.1725},{"name":"EKAT","lat":56.6988888889,"lng":11.5558333333},{"name":"EKAV","lat":56.5958333333,"lng":11.1527777778},{"name":"EKBH","lat":55.6325,"lng":8.7541666667},{"name":"EKBI","lat":55.7402777778,"lng":9.1516666667},{"name":"EKBL","lat":55.4613888889,"lng":4.5497222222},{"name":"EKBR","lat":55.9436111111,"lng":9.6533333333},{"name":"EKCE","lat":56.4022222222,"lng":4.7597222222},{"name":"EKCH","lat":55.6180555556,"lng":12.6561111111},{"name":"EKDB","lat":55.4691666667,"lng":5.1333333333},{"name":"EKDE","lat":55.4805555556,"lng":5.1161111111},{"name":"EKDF","lat":55.4780555556,"lng":5.1055555556},{"name":"EKEB","lat":55.5258333333,"lng":8.5533333333},{"name":"EKEL","lat":55.7563888889,"lng":10.2486111111},{"name":"EKFA","lat":61.5436111111,"lng":-6.7744444444},{"name":"EKFM","lat":54.9838888889,"lng":11.5372222222},{"name":"EKFR","lat":55.8986111111,"lng":12.245},{"name":"EKFU","lat":56.8244444444,"lng":8.9861111111},{"name":"EKGA","lat":56.3836111111,"lng":10.8630555556},{"name":"EKGC","lat":55.58,"lng":4.7588888889},{"name":"EKGH","lat":55.9397222222,"lng":12.3819444444},{"name":"EKGL","lat":55.8855555556,"lng":12.2280555556},{"name":"EKGO","lat":55.5527777778,"lng":11.1952777778},{"name":"EKGR","lat":56.4425,"lng":10.9305555556},{"name":"EKHA","lat":55.5308333333,"lng":5.0041666667},{"name":"EKHB","lat":55.5386111111,"lng":5.0333333333},{"name":"EKHD","lat":56.3441666667,"lng":4.2719444444},{"name":"EKHE","lat":55.9847222222,"lng":12.2144444444},{"name":"EKHG","lat":56.1847222222,"lng":9.0444444444},{"name":"EKHH","lat":56.3625,"lng":8.6291666667},{"name":"EKHJ","lat":57.4497222222,"lng":10.0005555556},{"name":"EKHK","lat":55.7327777778,"lng":11.6027777778},{"name":"EKHL","lat":55.4966666667,"lng":8.9108333333},{"name":"EKHM","lat":55.9069444444,"lng":9.4536111111},{"name":"EKHN","lat":55.6002777778,"lng":7.6238888889},{"name":"EKHO","lat":56.0386166667,"lng":12.5666666667},{"name":"EKHR","lat":55.5088888889,"lng":7.875},{"name":"EKHS","lat":56.7558333333,"lng":10.2286111111},{"name":"EKHV","lat":55.3022222222,"lng":9.5225},{"name":"EKKA","lat":56.2975,"lng":9.1247222222},{"name":"EKKL","lat":55.7,"lng":11.25},{"name":"EKKO","lat":55.3369444444,"lng":11.2416666667},{"name":"EKKS","lat":55.2522222222,"lng":12.0627777778},{"name":"EKKU","lat":62.3172222222,"lng":-6.3133333333},{"name":"EKKV","lat":62.2177777778,"lng":-6.5763888889},{"name":"EKLS","lat":57.2772222222,"lng":11},{"name":"EKLV","lat":56.5030555556,"lng":8.3116666667},{"name":"EKMB","lat":54.6994444444,"lng":11.44},{"name":"EKMN","lat":54.96555,"lng":12.1958333333},{"name":"EKMS","lat":62.1022222222,"lng":-7.6458333333},{"name":"EKNE","lat":56.6747222222,"lng":5.4127777778},{"name":"EKNI","lat":56.6408333333,"lng":5.3211111111},{"name":"EKNM","lat":56.8244444444,"lng":8.7863888889},{"name":"EKNS","lat":54.8172166667,"lng":11.1325},{"name":"EKOD","lat":55.4766666667,"lng":10.3308333333},{"name":"EKPB","lat":54.8702777778,"lng":9.2788888889},{"name":"EKRA","lat":55.7786111111,"lng":9.9388888889},{"name":"EKRB","lat":55.0908333333,"lng":14.7080555556},{"name":"EKRD","lat":56.5066666667,"lng":10.0363888889},{"name":"EKRF","lat":55.6061111111,"lng":4.4911111111},{"name":"EKRH","lat":55.6966666667,"lng":12.5666666667},{"name":"EKRK","lat":55.5855555556,"lng":12.1313888889},{"name":"EKRN","lat":55.0633333333,"lng":14.7594444444},{"name":"EKRR","lat":55.2108333333,"lng":14.8797166667},{"name":"EKRS","lat":55.4258333333,"lng":11.8069444444},{"name":"EKSA","lat":57.3466666667,"lng":10.4069444444},{"name":"EKSB","lat":54.9644444444,"lng":9.7916666667},{"name":"EKSC","lat":55.5313888889,"lng":4.9066666667},{"name":"EKSD","lat":56.1027777778,"lng":8.5141666667},{"name":"EKSG","lat":55.5438888889,"lng":10.6358333333},{"name":"EKSI","lat":56.4827777778,"lng":4.9111111111},{"name":"EKSL","lat":55.4522222222,"lng":11.6447222222},{"name":"EKSM","lat":55.8333333333,"lng":10.5833333333},{"name":"EKSN","lat":57.5036111111,"lng":10.2294444444},{"name":"EKSO","lat":62.2766666667,"lng":-6.3413888889},{"name":"EKSP","lat":55.2255555556,"lng":9.2638888889},{"name":"EKSR","lat":61.6852777778,"lng":-6.7586111111},{"name":"EKSS","lat":55.89,"lng":10.6138888889},{"name":"EKST","lat":55.0163888889,"lng":10.5630555556},{"name":"EKSV","lat":56.5502777778,"lng":9.1730555556},{"name":"EKSY","lat":61.7694444444,"lng":-6.8033333333},{"name":"EKTB","lat":62.0216666667,"lng":-6.7575},{"name":"EKTD","lat":54.9297222222,"lng":8.8402777778},{"name":"EKTE","lat":55.7213888889,"lng":4.8022222222},{"name":"EKTH","lat":56.6433333333,"lng":8.4980555556},{"name":"EKTP","lat":56.965,"lng":8.7058333333},{"name":"EKTS","lat":57.0688888889,"lng":8.7052777778},{"name":"EKTW","lat":55.7163888889,"lng":4.7502777778},{"name":"EKVA","lat":55.7016666667,"lng":9.215},{"name":"EKVB","lat":56.41,"lng":9.4094444444},{"name":"EKVD","lat":55.4363888889,"lng":9.3308333333},{"name":"EKVG","lat":62.0636111111,"lng":-7.2772222222},{"name":"EKVH","lat":56.8469444444,"lng":9.4586111111},{"name":"EKVJ","lat":55.99,"lng":8.3538888889},{"name":"EKVL","lat":55.7672166667,"lng":12.3433333333},{"name":"EKYL","lat":57.0583333333,"lng":9.8880555556},{"name":"EKYT","lat":57.0927777778,"lng":9.8491666667},{"name":"ELLX","lat":49.6233333333,"lng":6.2044444444},{"name":"ELNT","lat":49.9811111111,"lng":5.9177777778},{"name":"ELUS","lat":49.7677777778,"lng":5.9675},{"name":"ENAE","lat":61.2583333333,"lng":11.67},{"name":"ENAH","lat":60.6247222222,"lng":8.5672222222},{"name":"ENAL","lat":62.5625,"lng":6.1197222222},{"name":"ENAN","lat":69.2925,"lng":16.1441666667},{"name":"ENAR","lat":58.4675,"lng":8.7541666667},{"name":"ENAS","lat":78.9277777778,"lng":11.8747222222},{"name":"ENAT","lat":69.9761111111,"lng":23.3716666667},{"name":"ENBA","lat":78.05,"lng":14.1666666667},{"name":"ENBE","lat":59.1905555556,"lng":2.3577777778},{"name":"ENBG","lat":60.38,"lng":5.3461111111},{"name":"ENBJ","lat":74.5016666667,"lng":19.0875},{"name":"ENBL","lat":61.3911111111,"lng":5.7569444444},{"name":"ENBM","lat":60.6327777778,"lng":6.4983333333},{"name":"ENBN","lat":65.4611111111,"lng":12.2175},{"name":"ENBO","lat":67.2691666667,"lng":14.3652777778},{"name":"ENBR","lat":60.2936111111,"lng":5.2180555556},{"name":"ENBS","lat":70.6002777778,"lng":29.6925},{"name":"ENBV","lat":70.8713888889,"lng":29.0341666667},{"name":"ENCN","lat":58.2038888889,"lng":8.085},{"name":"ENDB","lat":62.0688888889,"lng":9.0688888889},{"name":"ENDH","lat":59.7477777778,"lng":10.1975},{"name":"ENDI","lat":60.4166666667,"lng":8.5127777778},{"name":"ENDO","lat":60.8333333333,"lng":9.9166666667},{"name":"ENDP","lat":58.1880555556,"lng":2.4711111111},{"name":"ENDR","lat":64.3527777778,"lng":7.7811111111},{"name":"ENDU","lat":69.0558333333,"lng":18.5402777778},{"name":"ENEG","lat":60.2166666667,"lng":10.3225},{"name":"ENEK","lat":56.5466666667,"lng":3.2113888889},{"name":"ENEL","lat":60.8775,"lng":11.5686111111},{"name":"ENEN","lat":67.9672222222,"lng":14.9925},{"name":"ENEV","lat":68.4888888889,"lng":16.6783333333},{"name":"ENFA","lat":63.7002777778,"lng":8.7588888889},{"name":"ENFB","lat":61.2063888889,"lng":1.8288888889},{"name":"ENFD","lat":61.4563888889,"lng":5.8905555556},{"name":"ENFG","lat":61.0155555556,"lng":9.2880555556},{"name":"ENFJ","lat":60.7655555556,"lng":4.7327777778},{"name":"ENFL","lat":61.5836111111,"lng":5.0247222222},{"name":"ENFR","lat":59.8783333333,"lng":2.065},{"name":"ENFY","lat":59.1994444444,"lng":8.0819444444},{"name":"ENFZ","lat":59.0666666667,"lng":10.0666666667},{"name":"ENGA","lat":61.1755555556,"lng":2.1875},{"name":"ENGC","lat":61.2144444444,"lng":2.2722222222},{"name":"ENGK","lat":58.5166666667,"lng":8.7},{"name":"ENGM","lat":60.2027777778,"lng":11.0838888889},{"name":"ENGN","lat":62.1166666667,"lng":10.11},{"name":"ENGS","lat":64.1833333333,"lng":12.1716666667},{"name":"ENHA","lat":60.8180555556,"lng":11.0680555556},{"name":"ENHD","lat":59.3433333333,"lng":5.2125},{"name":"ENHE","lat":65.3255555556,"lng":7.3158333333},{"name":"ENHF","lat":70.6797222222,"lng":23.6686111111},{"name":"ENHK","lat":70.4866666667,"lng":22.1397222222},{"name":"ENHM","lat":59.5736111111,"lng":2.2269444444},{"name":"ENHN","lat":60.8466666667,"lng":11.6733333333},{"name":"ENHO","lat":76.5,"lng":25},{"name":"ENHS","lat":59.7666666667,"lng":9.9116666667},{"name":"ENHT","lat":65.595,"lng":13.99},{"name":"ENHV","lat":71.0097222222,"lng":25.9836111111},{"name":"ENHX","lat":59.4088888889,"lng":5.2794444444},{"name":"ENIS","lat":78.05,"lng":13.6666666667},{"name":"ENJA","lat":71,"lng":-8.5833333333},{"name":"ENJB","lat":59.3,"lng":10.3666666667},{"name":"ENKA","lat":69.05,"lng":23.0486111111},{"name":"ENKB","lat":63.1119444444,"lng":7.8261111111},{"name":"ENKJ","lat":59.9694444444,"lng":11.0388888889},{"name":"ENKL","lat":60.7913888889,"lng":9.0505555556},{"name":"ENKR","lat":69.725,"lng":29.8877777778},{"name":"ENLA","lat":57.1105555556,"lng":2.8444444444},{"name":"ENLH","lat":61.1172222222,"lng":10.4680555556},{"name":"ENLI","lat":58.1002777778,"lng":6.625},{"name":"ENLK","lat":68.1525,"lng":13.6094444444},{"name":"ENLU","lat":59.2983333333,"lng":9.1333333333},{"name":"ENLX","lat":59.9322222222,"lng":10.9869444444},{"name":"ENMH","lat":71.0297222222,"lng":27.8266666667},{"name":"ENML","lat":62.7447222222,"lng":7.2625},{"name":"ENMS","lat":65.7836111111,"lng":13.2152777778},{"name":"ENNA","lat":70.0666666667,"lng":24.9738888889},{"name":"ENNE","lat":66.0269444444,"lng":8.0863888889},{"name":"ENNJ","lat":64.2705555556,"lng":7.1997222222},{"name":"ENNK","lat":68.4369444444,"lng":17.3866666667},{"name":"ENNM","lat":64.4722222222,"lng":11.5786111111},{"name":"ENNO","lat":59.5655555556,"lng":9.2122222222},{"name":"ENOA","lat":60.4913888889,"lng":2.8255555556},